{
  "source": "nominatim.openstreetmap.org",
  "updated": "2026-07-13",
  "cities": {
    "12th arrondissement of Paris, France": {
      "city": "12th arrondissement of Paris",
      "lat": 48.8534951,
      "lon": 2.3483915,
      "addresstype": "city"
    },
    "14th arrondissement of Paris, France": {
      "city": "14th arrondissement of Paris",
      "lat": 48.8534951,
      "lon": 2.3483915,
      "addresstype": "city"
    },
    "20th arrondissement of Paris, France": {
      "city": "20th arrondissement of Paris",
      "lat": 48.8534951,
      "lon": 2.3483915,
      "addresstype": "city"
    },
    "3rd arrondissement of Lyon, France": {
      "city": "3rd arrondissement of Lyon",
      "lat": 45.7578137,
      "lon": 4.8320114,
      "addresstype": "city"
    },
    "8th arrondissement of Lyon, France": {
      "city": "8th arrondissement of Lyon",
      "lat": 45.7578137,
      "lon": 4.8320114,
      "addresstype": "city"
    },
    "Aachen, Germany": {
      "city": "Aachen",
      "lat": 50.776351,
      "lon": 6.083862,
      "addresstype": "city"
    },
    "Aaigem, Belgium": {
      "city": "Aaigem",
      "lat": 50.8894174,
      "lon": 3.9366909,
      "addresstype": "village"
    },
    "Aarau, Switzerland": {
      "city": "Aarau",
      "lat": 47.3927146,
      "lon": 8.0444448,
      "addresstype": "town"
    },
    "Aarhus, Denmark": {
      "city": "Aarhus",
      "lat": 56.1496278,
      "lon": 10.2134046,
      "addresstype": "city"
    },
    "Aberdeen, Scotland": {
      "city": "Aberdeen",
      "lat": 57.1482429,
      "lon": -2.0928095,
      "addresstype": "city"
    },
    "Abidjan, Ivory Coast": {
      "city": "Abidjan",
      "lat": 5.320357,
      "lon": -4.016107,
      "addresstype": "city"
    },
    "Abiko, Japan": {
      "city": "Abiko",
      "lat": 35.863999,
      "lon": 140.0280653,
      "addresstype": "city"
    },
    "Abuja, Nigeria": {
      "city": "Abuja",
      "lat": 9.0643305,
      "lon": 7.4892974,
      "addresstype": "city"
    },
    "Accra, Ghana": {
      "city": "Accra",
      "lat": 5.5571096,
      "lon": -0.2012376,
      "addresstype": "city"
    },
    "Adelaide, Australia": {
      "city": "Adelaide",
      "lat": -34.9281805,
      "lon": 138.5999312,
      "addresstype": "city"
    },
    "Adjamé, Ivory Coast": {
      "city": "Adjamé",
      "lat": 5.3531211,
      "lon": -4.0222008,
      "addresstype": "suburb"
    },
    "Adligenswil, Switzerland": {
      "city": "Adligenswil",
      "lat": 47.070535,
      "lon": 8.368244,
      "addresstype": "village"
    },
    "Agen, France": {
      "city": "Agen",
      "lat": 44.2015827,
      "lon": 0.6176112,
      "addresstype": "town"
    },
    "Ahome Municipality, Mexico": {
      "city": "Ahome Municipality",
      "lat": 25.9240491,
      "lon": -109.2058344,
      "addresstype": "county"
    },
    "Aix-les-Bains, France": {
      "city": "Aix-les-Bains",
      "lat": 45.6886292,
      "lon": 5.9146362,
      "addresstype": "town"
    },
    "Ajaccio, France": {
      "city": "Ajaccio",
      "lat": 41.9263991,
      "lon": 8.7376029,
      "addresstype": "city"
    },
    "Ajax, Canada": {
      "city": "Ajax",
      "lat": 43.8505287,
      "lon": -79.0208814,
      "addresstype": "city"
    },
    "Al Diwaniyah, Iraq": {
      "city": "Al Diwaniyah",
      "lat": 31.9853304,
      "lon": 44.9236266,
      "addresstype": "district"
    },
    "Al-Ahsa Oasis, Saudi Arabia": null,
    "Albacete, Spain": {
      "city": "Albacete",
      "lat": 38.9950921,
      "lon": -1.8559154,
      "addresstype": "city"
    },
    "Alella, Spain": {
      "city": "Alella",
      "lat": 41.4955603,
      "lon": 2.2935325,
      "addresstype": "city"
    },
    "Alfredo Baquerizo Moreno, Ecuador": {
      "city": "Alfredo Baquerizo Moreno",
      "lat": -1.8913275,
      "lon": -79.555226,
      "addresstype": "town"
    },
    "Algueirão - Mem Martins, Portugal": {
      "city": "Algueirão - Mem Martins",
      "lat": 38.8033024,
      "lon": -9.3348119,
      "addresstype": "city"
    },
    "Almada, Portugal": {
      "city": "Almada",
      "lat": 38.6831302,
      "lon": -9.1576301,
      "addresstype": "city"
    },
    "Almere, Netherlands": {
      "city": "Almere",
      "lat": 52.3705038,
      "lon": 5.2185859,
      "addresstype": "city"
    },
    "Altındağ, Turkey": {
      "city": "Altındağ",
      "lat": 39.9523587,
      "lon": 32.8662025,
      "addresstype": "town"
    },
    "Amadora, Portugal": {
      "city": "Amadora",
      "lat": 38.758959,
      "lon": -9.2365233,
      "addresstype": "city"
    },
    "Amagasaki, Japan": {
      "city": "Amagasaki",
      "lat": 34.7339783,
      "lon": 135.4064015,
      "addresstype": "city"
    },
    "Amalfi, Colombia": {
      "city": "Amalfi",
      "lat": 6.9070097,
      "lon": -75.0735908,
      "addresstype": "town"
    },
    "Amberg, Germany": {
      "city": "Amberg",
      "lat": 49.4543662,
      "lon": 11.8474021,
      "addresstype": "county"
    },
    "Amman, Jordan": {
      "city": "Amman",
      "lat": 31.9515694,
      "lon": 35.9239625,
      "addresstype": "city"
    },
    "Amsterdam, Netherlands": {
      "city": "Amsterdam",
      "lat": 52.3730796,
      "lon": 4.8924534,
      "addresstype": "city"
    },
    "Anchorage, United States": {
      "city": "Anchorage",
      "lat": 61.2163129,
      "lon": -149.894852,
      "addresstype": "city"
    },
    "Angers, France": {
      "city": "Angers",
      "lat": 47.4739884,
      "lon": -0.5515588,
      "addresstype": "city"
    },
    "Ankawa, Iraq": {
      "city": "Ankawa",
      "lat": 36.2325997,
      "lon": 43.9972173,
      "addresstype": "municipality"
    },
    "Ansan, South Korea": {
      "city": "Ansan",
      "lat": 37.3217152,
      "lon": 126.8308604,
      "addresstype": "city"
    },
    "Antalya, Turkey": {
      "city": "Antalya",
      "lat": 36.8865728,
      "lon": 30.7030242,
      "addresstype": "city"
    },
    "Antwerp, Belgium": {
      "city": "Antwerp",
      "lat": 51.2211097,
      "lon": 4.3997081,
      "addresstype": "city"
    },
    "Appleton, United States": {
      "city": "Appleton",
      "lat": 44.2613967,
      "lon": -88.4069744,
      "addresstype": "city"
    },
    "Aqaba, Jordan": {
      "city": "Aqaba",
      "lat": 29.5266483,
      "lon": 35.0075433,
      "addresstype": "city"
    },
    "Ar Ramtha, Jordan": {
      "city": "Ar Ramtha",
      "lat": 32.559167,
      "lon": 36.006944,
      "addresstype": "city"
    },
    "Arak, Iran": {
      "city": "Arak",
      "lat": 34.0862719,
      "lon": 49.6893884,
      "addresstype": "city"
    },
    "Aristóbulo del Valle, Argentina": {
      "city": "Aristóbulo del Valle",
      "lat": -27.099185,
      "lon": -54.8935248,
      "addresstype": "town"
    },
    "Arkel, Netherlands": {
      "city": "Arkel",
      "lat": 51.8634805,
      "lon": 4.993608,
      "addresstype": "village"
    },
    "Arlington, United States": {
      "city": "Arlington",
      "lat": 32.7355816,
      "lon": -97.1071186,
      "addresstype": "city"
    },
    "Arlon, Belgium": {
      "city": "Arlon",
      "lat": 49.6834601,
      "lon": 5.8167711,
      "addresstype": "town"
    },
    "Arnemuiden, Netherlands": {
      "city": "Arnemuiden",
      "lat": 51.5000009,
      "lon": 3.6762457,
      "addresstype": "village"
    },
    "Arnhem, Netherlands": {
      "city": "Arnhem",
      "lat": 51.984257,
      "lon": 5.9108573,
      "addresstype": "city"
    },
    "Arpajon, France": {
      "city": "Arpajon",
      "lat": 44.9034428,
      "lon": 2.4570176,
      "addresstype": "village"
    },
    "Artigas, Uruguay": {
      "city": "Artigas",
      "lat": -30.3984136,
      "lon": -56.4638078,
      "addresstype": "city"
    },
    "Asse, Belgium": {
      "city": "Asse",
      "lat": 50.9094333,
      "lon": 4.2015646,
      "addresstype": "town"
    },
    "Assomada, Cape Verde": {
      "city": "Assomada",
      "lat": 15.097635,
      "lon": -23.6668745,
      "addresstype": "town"
    },
    "Asteasu, Spain": {
      "city": "Asteasu",
      "lat": 43.192859,
      "lon": -2.0953446,
      "addresstype": "village"
    },
    "Asunción, Paraguay": {
      "city": "Asunción",
      "lat": -25.2800459,
      "lon": -57.6343814,
      "addresstype": "region"
    },
    "Aubervilliers, France": {
      "city": "Aubervilliers",
      "lat": 48.9146078,
      "lon": 2.3821895,
      "addresstype": "town"
    },
    "Auckland, New Zealand": {
      "city": "Auckland",
      "lat": -36.852095,
      "lon": 174.7631803,
      "addresstype": "city"
    },
    "Autlán de Navarro Municipality, Mexico": {
      "city": "Autlán de Navarro Municipality",
      "lat": 19.7703379,
      "lon": -104.3642747,
      "addresstype": "town"
    },
    "Aveiro, Portugal": {
      "city": "Aveiro",
      "lat": 40.640496,
      "lon": -8.6537841,
      "addresstype": "city"
    },
    "Aïn M'lila, Algeria": {
      "city": "Aïn M'lila",
      "lat": 36.0375444,
      "lon": 6.570986,
      "addresstype": "town"
    },
    "Babahoyo, Ecuador": {
      "city": "Babahoyo",
      "lat": -1.8009022,
      "lon": -79.5338214,
      "addresstype": "municipality"
    },
    "Backnang, Germany": {
      "city": "Backnang",
      "lat": 48.9468454,
      "lon": 9.4303638,
      "addresstype": "town"
    },
    "Baghdad, Iraq": {
      "city": "Baghdad",
      "lat": 33.3061701,
      "lon": 44.3872213,
      "addresstype": "city"
    },
    "Bahmai County, Iran": {
      "city": "Bahmai County",
      "lat": 30.9838624,
      "lon": 50.0792541,
      "addresstype": "county"
    },
    "Bahnemir, Iran": {
      "city": "Bahnemir",
      "lat": 36.6702899,
      "lon": 52.7620524,
      "addresstype": "town"
    },
    "Bahía Blanca, Argentina": {
      "city": "Bahía Blanca",
      "lat": -38.7176522,
      "lon": -62.2654871,
      "addresstype": "city"
    },
    "Baie-Mahault, France": {
      "city": "Baie-Mahault",
      "lat": 16.2679458,
      "lon": -61.5870766,
      "addresstype": "town"
    },
    "Balaguer, Spain": {
      "city": "Balaguer",
      "lat": 41.7896408,
      "lon": 0.8050711,
      "addresstype": "town"
    },
    "Balfron, Scotland": {
      "city": "Balfron",
      "lat": 56.0680711,
      "lon": -4.3356705,
      "addresstype": "village"
    },
    "Bambali, Senegal": {
      "city": "Bambali",
      "lat": 12.655907,
      "lon": -15.4529962,
      "addresstype": "village"
    },
    "Bandar-e Anzali, Iran": {
      "city": "Bandar-e Anzali",
      "lat": 37.4716356,
      "lon": 49.4685904,
      "addresstype": "city"
    },
    "Banja Luka, Bosnia and Herzegovina": {
      "city": "Banja Luka",
      "lat": 44.7720845,
      "lon": 17.1917651,
      "addresstype": "city"
    },
    "Barcelona, Spain": {
      "city": "Barcelona",
      "lat": 41.3825802,
      "lon": 2.177073,
      "addresstype": "city"
    },
    "Barnet, England": {
      "city": "Barnet",
      "lat": 51.65309,
      "lon": -0.2002261,
      "addresstype": "town"
    },
    "Barnsley, England": {
      "city": "Barnsley",
      "lat": 53.5527719,
      "lon": -1.4827755,
      "addresstype": "town"
    },
    "Barrancas, Colombia": {
      "city": "Barrancas",
      "lat": 10.9541684,
      "lon": -72.7888637,
      "addresstype": "town"
    },
    "Barreiro, Portugal": {
      "city": "Barreiro",
      "lat": 38.6340657,
      "lon": -9.0478559,
      "addresstype": "municipality"
    },
    "Basel, Switzerland": {
      "city": "Basel",
      "lat": 47.5581077,
      "lon": 7.5878261,
      "addresstype": "city"
    },
    "Bayat, Turkey": {
      "city": "Bayat",
      "lat": 40.5789741,
      "lon": 34.926489,
      "addresstype": "suburb"
    },
    "Bayonne, France": {
      "city": "Bayonne",
      "lat": 43.4945144,
      "lon": -1.4736657,
      "addresstype": "town"
    },
    "Bear, United States": {
      "city": "Bear",
      "lat": 39.6292091,
      "lon": -75.6585381,
      "addresstype": "village"
    },
    "Bechem, Ghana": {
      "city": "Bechem",
      "lat": 7.08778,
      "lon": -2.0246,
      "addresstype": "town"
    },
    "Beheira Governorate, Egypt": {
      "city": "Beheira Governorate",
      "lat": 30.7915206,
      "lon": 30.3465488,
      "addresstype": "state"
    },
    "Belén de Escobar, Argentina": {
      "city": "Belén de Escobar",
      "lat": -34.3453213,
      "lon": -58.7950701,
      "addresstype": "town"
    },
    "Benavente, Portugal": {
      "city": "Benavente",
      "lat": 38.9826508,
      "lon": -8.8095788,
      "addresstype": "town"
    },
    "Berchem-Sainte-Agathe, Belgium": {
      "city": "Berchem-Sainte-Agathe",
      "lat": 50.8649231,
      "lon": 4.2946734,
      "addresstype": "town"
    },
    "Bergen, Norway": {
      "city": "Bergen",
      "lat": 60.3943055,
      "lon": 5.3259192,
      "addresstype": "municipality"
    },
    "Berlin, Germany": {
      "city": "Berlin",
      "lat": 52.5173885,
      "lon": 13.3951309,
      "addresstype": "city"
    },
    "Berwyn, United States": {
      "city": "Berwyn",
      "lat": 41.8505874,
      "lon": -87.7936685,
      "addresstype": "town"
    },
    "Bethlehem, South Africa": {
      "city": "Bethlehem",
      "lat": -28.2308333,
      "lon": 28.3088889,
      "addresstype": "town"
    },
    "Bicas, Brazil": {
      "city": "Bicas",
      "lat": -21.7213723,
      "lon": -43.0604327,
      "addresstype": "municipality"
    },
    "Biel/Bienne, Switzerland": {
      "city": "Biel/Bienne",
      "lat": 47.1402077,
      "lon": 7.2439029,
      "addresstype": "city"
    },
    "Bilbao, Spain": {
      "city": "Bilbao",
      "lat": 43.2630018,
      "lon": -2.9350039,
      "addresstype": "city"
    },
    "Bingerville, Ivory Coast": {
      "city": "Bingerville",
      "lat": 5.3577727,
      "lon": -3.8885591,
      "addresstype": "city"
    },
    "Binningen, Switzerland": {
      "city": "Binningen",
      "lat": 47.53656,
      "lon": 7.570077,
      "addresstype": "town"
    },
    "Birmingham, United States": {
      "city": "Birmingham",
      "lat": 33.5206824,
      "lon": -86.8024326,
      "addresstype": "city"
    },
    "Bishop Lavis, South Africa": {
      "city": "Bishop Lavis",
      "lat": -33.9486111,
      "lon": 18.5758333,
      "addresstype": "suburb"
    },
    "Bloemfontein, South Africa": {
      "city": "Bloemfontein",
      "lat": -29.116395,
      "lon": 26.215496,
      "addresstype": "city"
    },
    "Blyth, England": {
      "city": "Blyth",
      "lat": 55.1270903,
      "lon": -1.5099726,
      "addresstype": "town"
    },
    "Bochum, Germany": {
      "city": "Bochum",
      "lat": 51.4818111,
      "lon": 7.2196635,
      "addresstype": "city"
    },
    "Bodø Municipality, Norway": {
      "city": "Bodø Municipality",
      "lat": 67.2844313,
      "lon": 14.3817503,
      "addresstype": "municipality"
    },
    "Bodø, Norway": {
      "city": "Bodø",
      "lat": 67.2844313,
      "lon": 14.3817503,
      "addresstype": "municipality"
    },
    "Bogotá, Colombia": {
      "city": "Bogotá",
      "lat": 4.6533817,
      "lon": -74.0836331,
      "addresstype": "city"
    },
    "Bompata, Ghana": {
      "city": "Bompata",
      "lat": 6.634161,
      "lon": -1.059595,
      "addresstype": "village"
    },
    "Bondy, France": {
      "city": "Bondy",
      "lat": 48.9031,
      "lon": 2.48291,
      "addresstype": "town"
    },
    "Bonn, Germany": {
      "city": "Bonn",
      "lat": 50.7352621,
      "lon": 7.1024635,
      "addresstype": "city"
    },
    "Borne, Netherlands": {
      "city": "Borne",
      "lat": 52.3018287,
      "lon": 6.7502395,
      "addresstype": "town"
    },
    "Bou Ismaïl, Algeria": {
      "city": "Bou Ismaïl",
      "lat": 36.642758,
      "lon": 2.6899362,
      "addresstype": "town"
    },
    "Bouaké, Ivory Coast": {
      "city": "Bouaké",
      "lat": 7.6890212,
      "lon": -5.0283552,
      "addresstype": "city"
    },
    "Bourgoin-Jallieu, France": {
      "city": "Bourgoin-Jallieu",
      "lat": 45.5860438,
      "lon": 5.2772265,
      "addresstype": "town"
    },
    "Bourouba, Algeria": {
      "city": "Bourouba",
      "lat": 36.7138232,
      "lon": 3.1125789,
      "addresstype": "suburb"
    },
    "Boxtel, Netherlands": {
      "city": "Boxtel",
      "lat": 51.5890603,
      "lon": 5.3157954,
      "addresstype": "municipality"
    },
    "Braga, Portugal": {
      "city": "Braga",
      "lat": 41.5510583,
      "lon": -8.4280045,
      "addresstype": "city"
    },
    "Brampton, Canada": {
      "city": "Brampton",
      "lat": 43.685832,
      "lon": -79.7599366,
      "addresstype": "city"
    },
    "Brandenburg an der Havel, Germany": {
      "city": "Brandenburg an der Havel",
      "lat": 52.4108261,
      "lon": 12.5497933,
      "addresstype": "city"
    },
    "Brandýs nad Labem-Stará Boleslav, Czech Republic": {
      "city": "Brandýs nad Labem-Stará Boleslav",
      "lat": 50.1912412,
      "lon": 14.6649786,
      "addresstype": "town"
    },
    "Breda, Netherlands": {
      "city": "Breda",
      "lat": 51.5887845,
      "lon": 4.7760237,
      "addresstype": "city"
    },
    "Bredene, Belgium": {
      "city": "Bredene",
      "lat": 51.2408491,
      "lon": 2.9647914,
      "addresstype": "town"
    },
    "Bree, Belgium": {
      "city": "Bree",
      "lat": 51.1416131,
      "lon": 5.5974552,
      "addresstype": "town"
    },
    "Breisach, Germany": {
      "city": "Breisach",
      "lat": 48.0226167,
      "lon": 7.6040544,
      "addresstype": "suburb"
    },
    "Bremen, Germany": {
      "city": "Bremen",
      "lat": 53.0758196,
      "lon": 8.8071646,
      "addresstype": "city"
    },
    "Brisbane, Australia": {
      "city": "Brisbane",
      "lat": -27.4689623,
      "lon": 153.0235009,
      "addresstype": "city"
    },
    "Bristol, England": {
      "city": "Bristol",
      "lat": 51.4538022,
      "lon": -2.5972985,
      "addresstype": "city"
    },
    "Brooklyn, United States": {
      "city": "Brooklyn",
      "lat": 40.6526006,
      "lon": -73.9497211,
      "addresstype": "suburb"
    },
    "Bruges, Belgium": {
      "city": "Bruges",
      "lat": 51.2085526,
      "lon": 3.226772,
      "addresstype": "city"
    },
    "Brussels, Belgium": {
      "city": "Brussels",
      "lat": 50.8467372,
      "lon": 4.352493,
      "addresstype": "city"
    },
    "Brussels-Capital Region, Belgium": {
      "city": "Brussels-Capital Region",
      "lat": 50.8387951,
      "lon": 4.3753041,
      "addresstype": "county"
    },
    "Buduburam, Ghana": {
      "city": "Buduburam",
      "lat": 5.5234971,
      "lon": -0.4776318,
      "addresstype": "town"
    },
    "Buenos Aires, Argentina": {
      "city": "Buenos Aires",
      "lat": -34.6095579,
      "lon": -58.3887904,
      "addresstype": "city"
    },
    "Bunia, DR Congo": {
      "city": "Bunia",
      "lat": 1.5620529,
      "lon": 30.2478844,
      "addresstype": "city"
    },
    "Burnaby, Canada": {
      "city": "Burnaby",
      "lat": 49.2433804,
      "lon": -122.972545,
      "addresstype": "city"
    },
    "Busan, South Korea": {
      "city": "Busan",
      "lat": 35.1799528,
      "lon": 129.0752365,
      "addresstype": "city"
    },
    "Bushehr, Iran": {
      "city": "Bushehr",
      "lat": 28.9310786,
      "lon": 50.8458443,
      "addresstype": "city"
    },
    "Bærum Municipality, Norway": {
      "city": "Bærum Municipality",
      "lat": 59.9289639,
      "lon": 10.4997108,
      "addresstype": "municipality"
    },
    "Béchar, Algeria": {
      "city": "Béchar",
      "lat": 31.616312,
      "lon": -2.21841,
      "addresstype": "city"
    },
    "Caacupé, Paraguay": {
      "city": "Caacupé",
      "lat": -25.3856888,
      "lon": -57.140477,
      "addresstype": "town"
    },
    "Caaguazú, Paraguay": {
      "city": "Caaguazú",
      "lat": -25.4661756,
      "lon": -56.0181685,
      "addresstype": "city"
    },
    "Cairo, Egypt": {
      "city": "Cairo",
      "lat": 30.0443879,
      "lon": 31.2357257,
      "addresstype": "city"
    },
    "Calchín, Argentina": {
      "city": "Calchín",
      "lat": -31.666667,
      "lon": -63.2,
      "addresstype": "village"
    },
    "Cali, Colombia": {
      "city": "Cali",
      "lat": 3.4519988,
      "lon": -76.5325259,
      "addresstype": "city"
    },
    "Caloto, Colombia": {
      "city": "Caloto",
      "lat": 3.0336985,
      "lon": -76.4085199,
      "addresstype": "town"
    },
    "Camperdown, Australia": {
      "city": "Camperdown",
      "lat": -33.8896116,
      "lon": 151.1800986,
      "addresstype": "suburb"
    },
    "Campinas, Brazil": {
      "city": "Campinas",
      "lat": -22.9056391,
      "lon": -47.059564,
      "addresstype": "municipality"
    },
    "Campo Grande, Brazil": {
      "city": "Campo Grande",
      "lat": -20.4640173,
      "lon": -54.6162947,
      "addresstype": "municipality"
    },
    "Canberra, Australia": {
      "city": "Canberra",
      "lat": -35.2975906,
      "lon": 149.1012676,
      "addresstype": "city"
    },
    "Canela, Brazil": {
      "city": "Canela",
      "lat": -29.3447033,
      "lon": -50.7604149,
      "addresstype": "municipality"
    },
    "Canelones, Uruguay": {
      "city": "Canelones",
      "lat": -34.5242373,
      "lon": -56.2817519,
      "addresstype": "city"
    },
    "Cannes, France": {
      "city": "Cannes",
      "lat": 43.5515198,
      "lon": 7.0134418,
      "addresstype": "town"
    },
    "Cape Town, South Africa": {
      "city": "Cape Town",
      "lat": -33.9288301,
      "lon": 18.4172197,
      "addresstype": "city"
    },
    "Cape Verde, Cape Verde": null,
    "Capelle aan den IJssel, Netherlands": {
      "city": "Capelle aan den IJssel",
      "lat": 51.9312552,
      "lon": 4.5883596,
      "addresstype": "town"
    },
    "Carapeguá, Paraguay": {
      "city": "Carapeguá",
      "lat": -25.767636,
      "lon": -57.2425331,
      "addresstype": "town"
    },
    "Cartagena, Colombia": {
      "city": "Cartagena",
      "lat": 10.4265566,
      "lon": -75.5441671,
      "addresstype": "city"
    },
    "Casablanca, Morocco": {
      "city": "Casablanca",
      "lat": 33.5945144,
      "lon": -7.6200284,
      "addresstype": "city"
    },
    "Castricum, Netherlands": {
      "city": "Castricum",
      "lat": 52.5496739,
      "lon": 4.6696185,
      "addresstype": "town"
    },
    "Catanduva, Brazil": {
      "city": "Catanduva",
      "lat": -21.1331035,
      "lon": -48.9712817,
      "addresstype": "municipality"
    },
    "Cayenne, France": {
      "city": "Cayenne",
      "lat": 4.9371544,
      "lon": -52.3258736,
      "addresstype": "city"
    },
    "Celaya, Mexico": {
      "city": "Celaya",
      "lat": 20.521788,
      "lon": -100.8140458,
      "addresstype": "city"
    },
    "Cergy-Pontoise, France": {
      "city": "Cergy-Pontoise",
      "lat": 49.0527528,
      "lon": 2.0388736,
      "addresstype": "town"
    },
    "Cham, Switzerland": {
      "city": "Cham",
      "lat": 47.1823761,
      "lon": 8.4611036,
      "addresstype": "town"
    },
    "Champigny-sur-Marne, France": {
      "city": "Champigny-sur-Marne",
      "lat": 48.8137847,
      "lon": 2.510611,
      "addresstype": "town"
    },
    "Charleroi, Belgium": {
      "city": "Charleroi",
      "lat": 50.4116233,
      "lon": 4.444528,
      "addresstype": "city"
    },
    "Chirakchi, Uzbekistan": {
      "city": "Chirakchi",
      "lat": 39.03341,
      "lon": 66.5758025,
      "addresstype": "town"
    },
    "Chlef, Algeria": {
      "city": "Chlef",
      "lat": 36.1649385,
      "lon": 1.3315687,
      "addresstype": "city"
    },
    "Christchurch, New Zealand": {
      "city": "Christchurch",
      "lat": -43.530955,
      "lon": 172.6364343,
      "addresstype": "city"
    },
    "Chuncheon, South Korea": {
      "city": "Chuncheon",
      "lat": 37.8810569,
      "lon": 127.7297641,
      "addresstype": "city"
    },
    "Châlons-en-Champagne, France": {
      "city": "Châlons-en-Champagne",
      "lat": 48.9566218,
      "lon": 4.3628851,
      "addresstype": "town"
    },
    "Châteaubriant, France": {
      "city": "Châteaubriant",
      "lat": 47.7194057,
      "lon": -1.3757282,
      "addresstype": "town"
    },
    "Châtenay-Malabry, France": {
      "city": "Châtenay-Malabry",
      "lat": 48.7670404,
      "lon": 2.2775316,
      "addresstype": "town"
    },
    "Cihuatlán, Mexico": {
      "city": "Cihuatlán",
      "lat": 19.2390374,
      "lon": -104.5618485,
      "addresstype": "town"
    },
    "Cité Soleil, Haiti": {
      "city": "Cité Soleil",
      "lat": 18.5783693,
      "lon": -72.3355123,
      "addresstype": "town"
    },
    "Ciudad Juárez, Mexico": {
      "city": "Ciudad Juárez",
      "lat": 31.6907979,
      "lon": -106.4253215,
      "addresstype": "city"
    },
    "Ciudad del Este, Paraguay": {
      "city": "Ciudad del Este",
      "lat": -25.5169015,
      "lon": -54.6168645,
      "addresstype": "city"
    },
    "Ciudadela, Argentina": {
      "city": "Ciudadela",
      "lat": -34.633603,
      "lon": -58.5426528,
      "addresstype": "town"
    },
    "Clichy, France": {
      "city": "Clichy",
      "lat": 48.9026,
      "lon": 2.30551,
      "addresstype": "town"
    },
    "Cockermouth, England": {
      "city": "Cockermouth",
      "lat": 54.6636532,
      "lon": -3.3657782,
      "addresstype": "town"
    },
    "Coimbra, Portugal": {
      "city": "Coimbra",
      "lat": 40.2111931,
      "lon": -8.4294632,
      "addresstype": "city"
    },
    "Colmar, France": {
      "city": "Colmar",
      "lat": 48.0777517,
      "lon": 7.3579641,
      "addresstype": "town"
    },
    "Cologne, Germany": {
      "city": "Cologne",
      "lat": 50.938361,
      "lon": 6.959974,
      "addresstype": "city"
    },
    "Colombes, France": {
      "city": "Colombes",
      "lat": 48.9227298,
      "lon": 2.2543631,
      "addresstype": "town"
    },
    "Colonia del Sacramento, Uruguay": {
      "city": "Colonia del Sacramento",
      "lat": -34.4698592,
      "lon": -57.8433679,
      "addresstype": "city"
    },
    "Colón City, Panama": {
      "city": "Colón City",
      "lat": 9.3553005,
      "lon": -79.8974085,
      "addresstype": "city"
    },
    "Conakry, Guinea": {
      "city": "Conakry",
      "lat": 9.5170602,
      "lon": -13.6998434,
      "addresstype": "city"
    },
    "Concordia, Argentina": {
      "city": "Concordia",
      "lat": -31.3972539,
      "lon": -58.0173305,
      "addresstype": "city"
    },
    "Constantine, Algeria": {
      "city": "Constantine",
      "lat": 36.3641642,
      "lon": 6.6084281,
      "addresstype": "city"
    },
    "Copenhagen, Denmark": {
      "city": "Copenhagen",
      "lat": 55.6867243,
      "lon": 12.5700724,
      "addresstype": "city"
    },
    "Corgi, Iraq": null,
    "Courcouronnes, France": {
      "city": "Courcouronnes",
      "lat": 48.622557,
      "lon": 2.4118939,
      "addresstype": "city_district"
    },
    "Coyuca de Catalán Municipality, Mexico": {
      "city": "Coyuca de Catalán Municipality",
      "lat": 18.3253222,
      "lon": -100.6995289,
      "addresstype": "town"
    },
    "Creil, France": {
      "city": "Creil",
      "lat": 49.2607914,
      "lon": 2.4733771,
      "addresstype": "town"
    },
    "Croydon, England": {
      "city": "Croydon",
      "lat": 51.3713049,
      "lon": -0.101957,
      "addresstype": "town"
    },
    "Crumlin, Ireland": {
      "city": "Crumlin",
      "lat": 53.3202316,
      "lon": -6.3161673,
      "addresstype": "locality"
    },
    "Cuauhtémoc, Mexico": {
      "city": "Cuauhtémoc",
      "lat": 19.4326296,
      "lon": -99.1331785,
      "addresstype": "city"
    },
    "Curaçao, Netherlands": null,
    "Curitiba, Brazil": {
      "city": "Curitiba",
      "lat": -25.4295963,
      "lon": -49.2712724,
      "addresstype": "municipality"
    },
    "Córdoba, Argentina": {
      "city": "Córdoba",
      "lat": -31.4166867,
      "lon": -64.1834193,
      "addresstype": "city"
    },
    "Cúcuta, Colombia": {
      "city": "Cúcuta",
      "lat": 7.8971458,
      "lon": -72.5080387,
      "addresstype": "city"
    },
    "Daegu, South Korea": {
      "city": "Daegu",
      "lat": 35.8713,
      "lon": 128.6018,
      "addresstype": "city"
    },
    "Daejeon, South Korea": {
      "city": "Daejeon",
      "lat": 36.3497007,
      "lon": 127.3849016,
      "addresstype": "city"
    },
    "Dakar, Senegal": {
      "city": "Dakar",
      "lat": 14.693425,
      "lon": -17.447938,
      "addresstype": "city"
    },
    "Dalry, Scotland": {
      "city": "Dalry",
      "lat": 55.9423998,
      "lon": -3.2218312,
      "addresstype": "suburb"
    },
    "Dammam, Saudi Arabia": {
      "city": "Dammam",
      "lat": 26.4367824,
      "lon": 50.1039991,
      "addresstype": "city"
    },
    "Dandenong, Australia": {
      "city": "Dandenong",
      "lat": -37.98749,
      "lon": 145.2147923,
      "addresstype": "suburb"
    },
    "Darwin, Australia": {
      "city": "Darwin",
      "lat": -12.46044,
      "lon": 130.8410469,
      "addresstype": "city"
    },
    "Dennilton, South Africa": {
      "city": "Dennilton",
      "lat": -25.2655556,
      "lon": 29.1688889,
      "addresstype": "suburb"
    },
    "Desouk, Egypt": {
      "city": "Desouk",
      "lat": 31.128233,
      "lon": 30.646198,
      "addresstype": "city"
    },
    "Diouloulou, Senegal": {
      "city": "Diouloulou",
      "lat": 13.0482815,
      "lon": -16.598754,
      "addresstype": "town"
    },
    "Diyala Governorate, Iraq": {
      "city": "Diyala Governorate",
      "lat": 34.0228719,
      "lon": 45.1046224,
      "addresstype": "state"
    },
    "Djibonker, Senegal": null,
    "Doboj, Bosnia and Herzegovina": {
      "city": "Doboj",
      "lat": 44.7324559,
      "lon": 18.0850157,
      "addresstype": "city"
    },
    "Dock Sud, Argentina": {
      "city": "Dock Sud",
      "lat": -34.6522029,
      "lon": -58.3470596,
      "addresstype": "town"
    },
    "Doha, Qatar": {
      "city": "Doha",
      "lat": 25.2856329,
      "lon": 51.5264162,
      "addresstype": "city"
    },
    "Dolní Němčí, Czech Republic": {
      "city": "Dolní Němčí",
      "lat": 48.9684218,
      "lon": 17.5853622,
      "addresstype": "municipality"
    },
    "Don Benito, Spain": {
      "city": "Don Benito",
      "lat": 38.9540269,
      "lon": -5.8619466,
      "addresstype": "town"
    },
    "Dornbirn, Austria": {
      "city": "Dornbirn",
      "lat": 47.4136351,
      "lon": 9.7423762,
      "addresstype": "town"
    },
    "Douglas, Isle of Man": {
      "city": "Douglas",
      "lat": 54.149774,
      "lon": -4.4779021,
      "addresstype": "city"
    },
    "Drammen, Norway": {
      "city": "Drammen",
      "lat": 59.6964936,
      "lon": 10.175642,
      "addresstype": "municipality"
    },
    "Drongen, Belgium": {
      "city": "Drongen",
      "lat": 51.0504639,
      "lon": 3.6639157,
      "addresstype": "village"
    },
    "Dumfries, Scotland": {
      "city": "Dumfries",
      "lat": 55.0691831,
      "lon": -3.6106856,
      "addresstype": "town"
    },
    "Durban, South Africa": {
      "city": "Durban",
      "lat": -29.861825,
      "lon": 31.009909,
      "addresstype": "city"
    },
    "Décines-Charpieu, France": {
      "city": "Décines-Charpieu",
      "lat": 45.773606,
      "lon": 4.9633314,
      "addresstype": "town"
    },
    "Düsseldorf, Germany": {
      "city": "Düsseldorf",
      "lat": 51.2254018,
      "lon": 6.7763137,
      "addresstype": "city"
    },
    "Ealing, England": {
      "city": "Ealing",
      "lat": 51.5126553,
      "lon": -0.3051952,
      "addresstype": "town"
    },
    "Edelira, Paraguay": {
      "city": "Edelira",
      "lat": -26.767587,
      "lon": -55.2780964,
      "addresstype": "town"
    },
    "Edinburgh, Scotland": {
      "city": "Edinburgh",
      "lat": 55.9533456,
      "lon": -3.1883749,
      "addresstype": "city"
    },
    "Ehime Prefecture, Japan": {
      "city": "Ehime Prefecture",
      "lat": 33.6013646,
      "lon": 132.8185275,
      "addresstype": "province"
    },
    "Eibar, Spain": {
      "city": "Eibar",
      "lat": 43.1842839,
      "lon": -2.4732748,
      "addresstype": "town"
    },
    "Eindhoven, Netherlands": {
      "city": "Eindhoven",
      "lat": 51.4485569,
      "lon": 5.4501225,
      "addresstype": "municipality"
    },
    "Eisenstadt, Austria": {
      "city": "Eisenstadt",
      "lat": 47.8454821,
      "lon": 16.5249288,
      "addresstype": "town"
    },
    "El Cerrito, Colombia": {
      "city": "El Cerrito",
      "lat": 3.6829185,
      "lon": -76.3071487,
      "addresstype": "town"
    },
    "El Mahalla El Kubra, Egypt": {
      "city": "El Mahalla El Kubra",
      "lat": 30.9723517,
      "lon": 31.1683002,
      "addresstype": "town"
    },
    "El Milia, Algeria": {
      "city": "El Milia",
      "lat": 36.7514104,
      "lon": 6.2744614,
      "addresstype": "town"
    },
    "El Molino, Colombia": {
      "city": "El Molino",
      "lat": 10.6523076,
      "lon": -72.9215565,
      "addresstype": "town"
    },
    "El Paso, United States": {
      "city": "El Paso",
      "lat": 31.7601001,
      "lon": -106.4870476,
      "addresstype": "city"
    },
    "Eloy Alfaro Canton, Ecuador": {
      "city": "Eloy Alfaro Canton",
      "lat": -1.6687274,
      "lon": -78.7402985,
      "addresstype": "hamlet"
    },
    "Embalse, Argentina": {
      "city": "Embalse",
      "lat": -32.2067571,
      "lon": -64.4006283,
      "addresstype": "village"
    },
    "Emmen, Netherlands": {
      "city": "Emmen",
      "lat": 52.7528662,
      "lon": 6.9525135,
      "addresstype": "municipality"
    },
    "Empalme Olmos, Uruguay": {
      "city": "Empalme Olmos",
      "lat": -34.6954579,
      "lon": -55.8948676,
      "addresstype": "town"
    },
    "Ennenda, Switzerland": {
      "city": "Ennenda",
      "lat": 47.033828,
      "lon": 9.0779218,
      "addresstype": "village"
    },
    "Erbil, Iraq": {
      "city": "Erbil",
      "lat": 36.1911744,
      "lon": 44.0094145,
      "addresstype": "city"
    },
    "Eshtehard, Iran": {
      "city": "Eshtehard",
      "lat": 35.7234469,
      "lon": 50.3670608,
      "addresstype": "town"
    },
    "Esmeraldas, Ecuador": {
      "city": "Esmeraldas",
      "lat": 0.9668153,
      "lon": -79.6523847,
      "addresstype": "city"
    },
    "Esplugues de Llobregat, Spain": {
      "city": "Esplugues de Llobregat",
      "lat": 41.3778094,
      "lon": 2.0886257,
      "addresstype": "town"
    },
    "Essen, Germany": {
      "city": "Essen",
      "lat": 51.4582235,
      "lon": 7.0158171,
      "addresstype": "city"
    },
    "Estanyol, Spain": {
      "city": "Estanyol",
      "lat": 41.9411518,
      "lon": 2.7406459,
      "addresstype": "hamlet"
    },
    "Falkenberg, Sweden": {
      "city": "Falkenberg",
      "lat": 56.904894,
      "lon": 12.4912926,
      "addresstype": "town"
    },
    "Famaillá, Argentina": {
      "city": "Famaillá",
      "lat": -27.054364,
      "lon": -65.4020439,
      "addresstype": "town"
    },
    "Faro, Portugal": {
      "city": "Faro",
      "lat": 37.0162944,
      "lon": -7.935182,
      "addresstype": "city"
    },
    "Fetakgomo Local Municipality, South Africa": {
      "city": "Fetakgomo Local Municipality",
      "lat": -24.41531,
      "lon": 29.8550226,
      "addresstype": "city"
    },
    "Fez, Morocco": {
      "city": "Fez",
      "lat": 34.0346534,
      "lon": -5.0161926,
      "addresstype": "city"
    },
    "Fidenza, Italy": {
      "city": "Fidenza",
      "lat": 44.866522,
      "lon": 10.0611939,
      "addresstype": "town"
    },
    "Flekkefjord Municipality, Norway": {
      "city": "Flekkefjord Municipality",
      "lat": 58.2949357,
      "lon": 6.6129626,
      "addresstype": "municipality"
    },
    "Florida, United States": {
      "city": "Florida",
      "lat": 27.7567667,
      "lon": -81.4639835,
      "addresstype": "state"
    },
    "Foios, Spain": {
      "city": "Foios",
      "lat": 39.5381541,
      "lon": -0.3561396,
      "addresstype": "village"
    },
    "Fort Lauderdale, United States": {
      "city": "Fort Lauderdale",
      "lat": 26.1223084,
      "lon": -80.1433786,
      "addresstype": "city"
    },
    "Frankfurt, Germany": {
      "city": "Frankfurt",
      "lat": 50.1106444,
      "lon": 8.6820917,
      "addresstype": "city"
    },
    "Freetown, Sierra Leone": {
      "city": "Freetown",
      "lat": 8.479004,
      "lon": -13.26795,
      "addresstype": "city"
    },
    "Fresno, United States": {
      "city": "Fresno",
      "lat": 36.7394421,
      "lon": -119.78483,
      "addresstype": "city"
    },
    "Fribourg, Switzerland": {
      "city": "Fribourg",
      "lat": 46.8055656,
      "lon": 7.1612669,
      "addresstype": "town"
    },
    "Fuerte Apache, Argentina": null,
    "Fukuoka Prefecture, Japan": {
      "city": "Fukuoka Prefecture",
      "lat": 33.6251241,
      "lon": 130.6180016,
      "addresstype": "province"
    },
    "Funchal, Portugal": {
      "city": "Funchal",
      "lat": 32.6496497,
      "lon": -16.9086783,
      "addresstype": "city"
    },
    "Gama, Brazil": {
      "city": "Gama",
      "lat": -16.0170857,
      "lon": -48.0653054,
      "addresstype": "city"
    },
    "Geldrop, Netherlands": {
      "city": "Geldrop",
      "lat": 51.4226684,
      "lon": 5.5607546,
      "addresstype": "town"
    },
    "Gelsenkirchen, Germany": {
      "city": "Gelsenkirchen",
      "lat": 51.5110321,
      "lon": 7.0960124,
      "addresstype": "city"
    },
    "General San Martín, Argentina": {
      "city": "General San Martín",
      "lat": -22.8343235,
      "lon": -63.7060586,
      "addresstype": "state_district"
    },
    "Geneva, Switzerland": {
      "city": "Geneva",
      "lat": 46.2017559,
      "lon": 6.1466014,
      "addresstype": "city"
    },
    "Gifu Prefecture, Japan": {
      "city": "Gifu Prefecture",
      "lat": 35.7867449,
      "lon": 137.0460777,
      "addresstype": "province"
    },
    "Gimje, South Korea": {
      "city": "Gimje",
      "lat": 35.803815,
      "lon": 126.880557,
      "addresstype": "city"
    },
    "Gimpo, South Korea": {
      "city": "Gimpo",
      "lat": 37.6155683,
      "lon": 126.7157798,
      "addresstype": "city"
    },
    "Giza, Egypt": {
      "city": "Giza",
      "lat": 29.9870753,
      "lon": 31.2118063,
      "addresstype": "city"
    },
    "Glasgow, Scotland": {
      "city": "Glasgow",
      "lat": 55.861155,
      "lon": -4.2501687,
      "addresstype": "city"
    },
    "Gold Coast, Australia": {
      "city": "Gold Coast",
      "lat": -28.0023731,
      "lon": 153.4145987,
      "addresstype": "city"
    },
    "Gonbad-e Kavus, Iran": {
      "city": "Gonbad-e Kavus",
      "lat": 37.2492965,
      "lon": 55.1659018,
      "addresstype": "city"
    },
    "Gothenburg, Sweden": {
      "city": "Gothenburg",
      "lat": 57.7072326,
      "lon": 11.9670171,
      "addresstype": "city"
    },
    "Gqeberha, South Africa": {
      "city": "Gqeberha",
      "lat": -33.9618598,
      "lon": 25.6186731,
      "addresstype": "city"
    },
    "Grand-Béréby, Ivory Coast": {
      "city": "Grand-Béréby",
      "lat": 4.6507586,
      "lon": -6.9247355,
      "addresstype": "town"
    },
    "Grand-Goâve, Haiti": {
      "city": "Grand-Goâve",
      "lat": 18.4282512,
      "lon": -72.7681957,
      "addresstype": "town"
    },
    "Graz, Austria": {
      "city": "Graz",
      "lat": 47.0708678,
      "lon": 15.4382786,
      "addresstype": "city"
    },
    "Greenfield Park, Canada": {
      "city": "Greenfield Park",
      "lat": 45.4926624,
      "lon": -73.4870499,
      "addresstype": "suburb"
    },
    "Greenwich, England": {
      "city": "Greenwich",
      "lat": 51.4820845,
      "lon": -0.0045417,
      "addresstype": "town"
    },
    "Grenchen, Switzerland": {
      "city": "Grenchen",
      "lat": 47.1911495,
      "lon": 7.3967199,
      "addresstype": "town"
    },
    "Grimbergen, Belgium": {
      "city": "Grimbergen",
      "lat": 50.9457843,
      "lon": 4.3890967,
      "addresstype": "municipality"
    },
    "Grimstad, Norway": {
      "city": "Grimstad",
      "lat": 58.2839967,
      "lon": 8.7128291,
      "addresstype": "municipality"
    },
    "Groningen, Netherlands": {
      "city": "Groningen",
      "lat": 53.2190652,
      "lon": 6.5680077,
      "addresstype": "city"
    },
    "Guachené, Colombia": {
      "city": "Guachené",
      "lat": 3.1323331,
      "lon": -76.3916018,
      "addresstype": "town"
    },
    "Guadalajara, Mexico": {
      "city": "Guadalajara",
      "lat": 20.6720375,
      "lon": -103.338396,
      "addresstype": "city"
    },
    "Gualeguay, Argentina": {
      "city": "Gualeguay",
      "lat": -33.1504259,
      "lon": -59.3106789,
      "addresstype": "town"
    },
    "Guarulhos, Brazil": {
      "city": "Guarulhos",
      "lat": -23.4675941,
      "lon": -46.5277704,
      "addresstype": "municipality"
    },
    "Guayaquil, Ecuador": {
      "city": "Guayaquil",
      "lat": -2.1900572,
      "lon": -79.8868669,
      "addresstype": "city"
    },
    "Guédiawaye, Senegal": {
      "city": "Guédiawaye",
      "lat": 14.7771207,
      "lon": -17.390071,
      "addresstype": "department"
    },
    "Haarlem, Netherlands": {
      "city": "Haarlem",
      "lat": 52.3837281,
      "lon": 4.6435679,
      "addresstype": "city_district"
    },
    "Halden, Norway": {
      "city": "Halden",
      "lat": 59.0680555,
      "lon": 11.537191,
      "addresstype": "municipality"
    },
    "Halesowen, England": {
      "city": "Halesowen",
      "lat": 52.4492074,
      "lon": -2.0514646,
      "addresstype": "town"
    },
    "Halle, Belgium": {
      "city": "Halle",
      "lat": 50.7360524,
      "lon": 4.2374349,
      "addresstype": "town"
    },
    "Halmstad, Sweden": {
      "city": "Halmstad",
      "lat": 56.6739826,
      "lon": 12.8574827,
      "addresstype": "city"
    },
    "Hamamatsu, Japan": {
      "city": "Hamamatsu",
      "lat": 34.7109786,
      "lon": 137.7259431,
      "addresstype": "city"
    },
    "Hamburg, Germany": {
      "city": "Hamburg",
      "lat": 53.5501721,
      "lon": 10.0013165,
      "addresstype": "city"
    },
    "Hamilton, New Zealand": {
      "city": "Hamilton",
      "lat": -37.7878809,
      "lon": 175.281788,
      "addresstype": "city"
    },
    "Hamilton, Scotland": {
      "city": "Hamilton",
      "lat": 55.7759095,
      "lon": -4.033442,
      "addresstype": "town"
    },
    "Hamm, Germany": {
      "city": "Hamm",
      "lat": 50.0165178,
      "lon": 6.4184628,
      "addresstype": "village"
    },
    "Hammerfest, Norway": {
      "city": "Hammerfest",
      "lat": 70.6413392,
      "lon": 23.8360801,
      "addresstype": "municipality"
    },
    "Hanover, Germany": {
      "city": "Hanover",
      "lat": 52.3744779,
      "lon": 9.7385532,
      "addresstype": "city"
    },
    "Hareid, Norway": {
      "city": "Hareid",
      "lat": 62.3598311,
      "lon": 6.0305106,
      "addresstype": "municipality"
    },
    "Haro, Spain": {
      "city": "Haro",
      "lat": 42.5768922,
      "lon": -2.8466768,
      "addresstype": "town"
    },
    "Harold Wood, England": {
      "city": "Harold Wood",
      "lat": 51.5936326,
      "lon": 0.2310497,
      "addresstype": "suburb"
    },
    "Havlíčkův Brod, Czech Republic": {
      "city": "Havlíčkův Brod",
      "lat": 49.606942,
      "lon": 15.5795748,
      "addresstype": "town"
    },
    "Hawija, Iraq": {
      "city": "Hawija",
      "lat": 35.3233218,
      "lon": 43.7824093,
      "addresstype": "town"
    },
    "Hayama, Japan": {
      "city": "Hayama",
      "lat": 35.2719497,
      "lon": 139.5860744,
      "addresstype": "town"
    },
    "Heeswijk-Dinther, Netherlands": {
      "city": "Heeswijk-Dinther",
      "lat": 51.6493848,
      "lon": 5.4739859,
      "addresstype": "village"
    },
    "Hellmonsödt, Austria": {
      "city": "Hellmonsödt",
      "lat": 48.4317006,
      "lon": 14.3000344,
      "addresstype": "village"
    },
    "Helmond, Netherlands": {
      "city": "Helmond",
      "lat": 51.4736023,
      "lon": 5.6670321,
      "addresstype": "municipality"
    },
    "Helwan, Egypt": {
      "city": "Helwan",
      "lat": 29.8500001,
      "lon": 31.333333,
      "addresstype": "city"
    },
    "Hermosillo, Mexico": {
      "city": "Hermosillo",
      "lat": 29.0948207,
      "lon": -110.9692202,
      "addresstype": "city"
    },
    "Heroica Cárdenas, Mexico": {
      "city": "Heroica Cárdenas",
      "lat": 17.9886831,
      "lon": -93.3767428,
      "addresstype": "city"
    },
    "Hershey, United States": {
      "city": "Hershey",
      "lat": 40.2854881,
      "lon": -76.6506001,
      "addresstype": "town"
    },
    "Hluhluwe, South Africa": {
      "city": "Hluhluwe",
      "lat": -28.0175,
      "lon": 32.269167,
      "addresstype": "town"
    },
    "Hoboken, Belgium": {
      "city": "Hoboken",
      "lat": 51.1794946,
      "lon": 4.3617847,
      "addresstype": "borough"
    },
    "Hoorn, Netherlands": {
      "city": "Hoorn",
      "lat": 52.653272,
      "lon": 5.0735802,
      "addresstype": "town"
    },
    "Horn, Austria": {
      "city": "Horn",
      "lat": 48.6636596,
      "lon": 15.6563147,
      "addresstype": "town"
    },
    "Hradec Králové, Czech Republic": {
      "city": "Hradec Králové",
      "lat": 50.2092113,
      "lon": 15.8327512,
      "addresstype": "city"
    },
    "Huizen, Netherlands": {
      "city": "Huizen",
      "lat": 52.2958122,
      "lon": 5.2567209,
      "addresstype": "town"
    },
    "Hwaseong, South Korea": {
      "city": "Hwaseong",
      "lat": 37.1994653,
      "lon": 126.8312632,
      "addresstype": "city"
    },
    "Hyllie, Sweden": {
      "city": "Hyllie",
      "lat": 55.5694418,
      "lon": 12.9771229,
      "addresstype": "suburb"
    },
    "Hägerstens församling, Sweden": null,
    "Ibarra, Ecuador": {
      "city": "Ibarra",
      "lat": 0.3520459,
      "lon": -78.1199716,
      "addresstype": "municipality"
    },
    "Imotski, Croatia": {
      "city": "Imotski",
      "lat": 43.4471115,
      "lon": 17.2179703,
      "addresstype": "town"
    },
    "Incheon, South Korea": {
      "city": "Incheon",
      "lat": 37.456,
      "lon": 126.7052,
      "addresstype": "city"
    },
    "Inverness, Scotland": {
      "city": "Inverness",
      "lat": 57.4790124,
      "lon": -4.225739,
      "addresstype": "city"
    },
    "Irbid, Jordan": {
      "city": "Irbid",
      "lat": 32.5556091,
      "lon": 35.8493023,
      "addresstype": "city"
    },
    "Irvine, Scotland": {
      "city": "Irvine",
      "lat": 55.6131309,
      "lon": -4.6696399,
      "addresstype": "town"
    },
    "Ismailia, Egypt": {
      "city": "Ismailia",
      "lat": 30.6043775,
      "lon": 32.2770825,
      "addresstype": "city"
    },
    "Istmina, Colombia": {
      "city": "Istmina",
      "lat": 5.1593099,
      "lon": -76.685528,
      "addresstype": "town"
    },
    "Itagüí, Colombia": {
      "city": "Itagüí",
      "lat": 6.1724352,
      "lon": -75.6093254,
      "addresstype": "town"
    },
    "Itapitanga, Brazil": {
      "city": "Itapitanga",
      "lat": -14.4232006,
      "lon": -39.5649322,
      "addresstype": "municipality"
    },
    "Ivančice, Czech Republic": {
      "city": "Ivančice",
      "lat": 49.1015881,
      "lon": 16.3776051,
      "addresstype": "town"
    },
    "Ivry-sur-Seine, France": {
      "city": "Ivry-sur-Seine",
      "lat": 48.8122302,
      "lon": 2.3872525,
      "addresstype": "town"
    },
    "Izumi, Japan": {
      "city": "Izumi",
      "lat": 34.4831932,
      "lon": 135.4232139,
      "addresstype": "city"
    },
    "Jarkurghon, Uzbekistan": null,
    "Jazan, Saudi Arabia": {
      "city": "Jazan",
      "lat": 16.894719,
      "lon": 42.5579758,
      "addresstype": "city"
    },
    "Jeddah, Saudi Arabia": {
      "city": "Jeddah",
      "lat": 21.5504432,
      "lon": 39.1742363,
      "addresstype": "city"
    },
    "Jeonju, South Korea": {
      "city": "Jeonju",
      "lat": 35.8237631,
      "lon": 127.1472805,
      "addresstype": "city"
    },
    "Jesenice, Slovenia": {
      "city": "Jesenice",
      "lat": 46.4459152,
      "lon": 14.0663103,
      "addresstype": "municipality"
    },
    "Jizzakh, Uzbekistan": {
      "city": "Jizzakh",
      "lat": 40.1331797,
      "lon": 67.8234081,
      "addresstype": "city"
    },
    "Johannesburg, South Africa": {
      "city": "Johannesburg",
      "lat": -26.205,
      "lon": 28.049722,
      "addresstype": "city"
    },
    "João Pessoa, Brazil": {
      "city": "João Pessoa",
      "lat": -7.1215981,
      "lon": -34.882028,
      "addresstype": "municipality"
    },
    "Judenburg, Austria": {
      "city": "Judenburg",
      "lat": 47.1694082,
      "lon": 14.6601079,
      "addresstype": "town"
    },
    "Jönköping, Sweden": {
      "city": "Jönköping",
      "lat": 57.7825634,
      "lon": 14.165719,
      "addresstype": "city"
    },
    "Kafr el-Dawwar, Egypt": null,
    "Kafr el-Sheikh, Egypt": {
      "city": "Kafr el-Sheikh",
      "lat": 31.3814765,
      "lon": 30.8513566,
      "addresstype": "state"
    },
    "Kakegawa, Japan": {
      "city": "Kakegawa",
      "lat": 34.7688351,
      "lon": 137.9986433,
      "addresstype": "city"
    },
    "Kakuma, Kenya": {
      "city": "Kakuma",
      "lat": 3.706286,
      "lon": 34.873489,
      "addresstype": "town"
    },
    "Kanagawa Prefecture, Japan": {
      "city": "Kanagawa Prefecture",
      "lat": 35.4342935,
      "lon": 139.374753,
      "addresstype": "province"
    },
    "Kananga, DR Congo": {
      "city": "Kananga",
      "lat": -5.8951725,
      "lon": 22.408589,
      "addresstype": "city"
    },
    "Karabük, Turkey": {
      "city": "Karabük",
      "lat": 41.1955402,
      "lon": 32.6231154,
      "addresstype": "city"
    },
    "Karamürsel district, Turkey": {
      "city": "Karamürsel district",
      "lat": 40.6912501,
      "lon": 29.6165859,
      "addresstype": "town"
    },
    "Karlovy Vary, Czech Republic": {
      "city": "Karlovy Vary",
      "lat": 50.2306216,
      "lon": 12.8701437,
      "addresstype": "city"
    },
    "Karlsruhe, Germany": {
      "city": "Karlsruhe",
      "lat": 49.0068705,
      "lon": 8.4034195,
      "addresstype": "city"
    },
    "Kartal, Turkey": {
      "city": "Kartal",
      "lat": 40.8885036,
      "lon": 29.18589,
      "addresstype": "town"
    },
    "Kashan, Iran": {
      "city": "Kashan",
      "lat": 33.9876533,
      "lon": 51.4428856,
      "addresstype": "city"
    },
    "Kawasaki, Japan": {
      "city": "Kawasaki",
      "lat": 35.5306639,
      "lon": 139.7037668,
      "addresstype": "city"
    },
    "Kempton Park, South Africa": {
      "city": "Kempton Park",
      "lat": -26.0964372,
      "lon": 28.2336325,
      "addresstype": "town"
    },
    "Kerkrade, Netherlands": {
      "city": "Kerkrade",
      "lat": 50.8749089,
      "lon": 6.0593853,
      "addresstype": "municipality"
    },
    "Khartoum, Sudan": {
      "city": "Khartoum",
      "lat": 15.5635972,
      "lon": 32.5349123,
      "addresstype": "city"
    },
    "Khobar, Saudi Arabia": {
      "city": "Khobar",
      "lat": 26.3039999,
      "lon": 50.1960237,
      "addresstype": "city"
    },
    "Kigoma, Tanzania": {
      "city": "Kigoma",
      "lat": -4.877862,
      "lon": 29.6296319,
      "addresstype": "city"
    },
    "Kilmarnock, Scotland": {
      "city": "Kilmarnock",
      "lat": 55.6100589,
      "lon": -4.4964652,
      "addresstype": "town"
    },
    "Kingston upon Thames, England": {
      "city": "Kingston upon Thames",
      "lat": 51.4096275,
      "lon": -0.3062621,
      "addresstype": "town"
    },
    "Kinshasa, DR Congo": {
      "city": "Kinshasa",
      "lat": -4.32171,
      "lon": 15.3122511,
      "addresstype": "city"
    },
    "Kirchbichl, Austria": {
      "city": "Kirchbichl",
      "lat": 47.5111617,
      "lon": 12.0859208,
      "addresstype": "village"
    },
    "Kirkuk, Iraq": {
      "city": "Kirkuk",
      "lat": 35.4719308,
      "lon": 44.3953896,
      "addresstype": "city"
    },
    "Kirriemuir, Scotland": {
      "city": "Kirriemuir",
      "lat": 56.6731057,
      "lon": -3.0043927,
      "addresstype": "town"
    },
    "Kisangani, DR Congo": {
      "city": "Kisangani",
      "lat": 0.5184021,
      "lon": 25.2057292,
      "addresstype": "city"
    },
    "Kista, Sweden": {
      "city": "Kista",
      "lat": 59.403311,
      "lon": 17.9442849,
      "addresstype": "suburb"
    },
    "Klatovy, Czech Republic": {
      "city": "Klatovy",
      "lat": 49.3951183,
      "lon": 13.2935954,
      "addresstype": "town"
    },
    "Knin, Croatia": {
      "city": "Knin",
      "lat": 44.04085,
      "lon": 16.199433,
      "addresstype": "town"
    },
    "Knokke-Heist, Belgium": {
      "city": "Knokke-Heist",
      "lat": 51.3433866,
      "lon": 3.2884738,
      "addresstype": "town"
    },
    "Kokand, Uzbekistan": {
      "city": "Kokand",
      "lat": 40.5408463,
      "lon": 70.9473889,
      "addresstype": "city"
    },
    "Kongsvinger Municipality, Norway": {
      "city": "Kongsvinger Municipality",
      "lat": 60.1899109,
      "lon": 12.2160367,
      "addresstype": "municipality"
    },
    "Koppigen, Switzerland": {
      "city": "Koppigen",
      "lat": 47.1318304,
      "lon": 7.601523,
      "addresstype": "village"
    },
    "Koson, Uzbekistan": {
      "city": "Koson",
      "lat": 39.0406833,
      "lon": 65.5858969,
      "addresstype": "town"
    },
    "Kosonsoy, Uzbekistan": {
      "city": "Kosonsoy",
      "lat": 41.2528658,
      "lon": 71.5446327,
      "addresstype": "town"
    },
    "Koumassi, Ivory Coast": {
      "city": "Koumassi",
      "lat": 5.2927045,
      "lon": -3.9585801,
      "addresstype": "municipality"
    },
    "Krumbach, Germany": {
      "city": "Krumbach",
      "lat": 48.2430587,
      "lon": 10.3631004,
      "addresstype": "town"
    },
    "Kuchl, Austria": {
      "city": "Kuchl",
      "lat": 47.6258369,
      "lon": 13.1451024,
      "addresstype": "village"
    },
    "Kumamoto, Japan": {
      "city": "Kumamoto",
      "lat": 32.8033909,
      "lon": 130.7082737,
      "addresstype": "city"
    },
    "Kumasi, Ghana": {
      "city": "Kumasi",
      "lat": 6.6985605,
      "lon": -1.6233086,
      "addresstype": "city"
    },
    "KwaMashu, South Africa": {
      "city": "KwaMashu",
      "lat": -29.741389,
      "lon": 30.962222,
      "addresstype": "town"
    },
    "Küçükçekmece, Turkey": {
      "city": "Küçükçekmece",
      "lat": 40.9918737,
      "lon": 28.7711956,
      "addresstype": "town"
    },
    "La Jagua de Ibirico, Colombia": {
      "city": "La Jagua de Ibirico",
      "lat": 9.5613975,
      "lon": -73.3328147,
      "addresstype": "town"
    },
    "La Plata, Argentina": {
      "city": "La Plata",
      "lat": -34.9206797,
      "lon": -57.9537638,
      "addresstype": "city"
    },
    "La Roche-sur-Yon, France": {
      "city": "La Roche-sur-Yon",
      "lat": 46.6705578,
      "lon": -1.4269591,
      "addresstype": "town"
    },
    "La Victoria, Colombia": {
      "city": "La Victoria",
      "lat": 5.5152589,
      "lon": -74.2354892,
      "addresstype": "county"
    },
    "Ladysmith, South Africa": {
      "city": "Ladysmith",
      "lat": -28.5587291,
      "lon": 29.7825044,
      "addresstype": "city"
    },
    "Lagny-sur-Marne, France": {
      "city": "Lagny-sur-Marne",
      "lat": 48.8773018,
      "lon": 2.7056056,
      "addresstype": "town"
    },
    "Lake Grove, United States": {
      "city": "Lake Grove",
      "lat": 40.8528761,
      "lon": -73.1151102,
      "addresstype": "village"
    },
    "Lancaster, England": {
      "city": "Lancaster",
      "lat": 54.0488219,
      "lon": -2.8013499,
      "addresstype": "city"
    },
    "Landsberg am Lech, Germany": {
      "city": "Landsberg am Lech",
      "lat": 48.0497474,
      "lon": 10.8768728,
      "addresstype": "town"
    },
    "Landshut, Germany": {
      "city": "Landshut",
      "lat": 48.536217,
      "lon": 12.1516551,
      "addresstype": "town"
    },
    "Langhus, Norway": {
      "city": "Langhus",
      "lat": 59.7464396,
      "lon": 10.8366712,
      "addresstype": "village"
    },
    "Langley, Canada": {
      "city": "Langley",
      "lat": 49.1039289,
      "lon": -122.657047,
      "addresstype": "city"
    },
    "Las Palmas de Gran Canaria, Spain": {
      "city": "Las Palmas de Gran Canaria",
      "lat": 28.1288694,
      "lon": -15.4349015,
      "addresstype": "city"
    },
    "Le Mans, France": {
      "city": "Le Mans",
      "lat": 48.0073849,
      "lon": 0.1967849,
      "addresstype": "city"
    },
    "Leamington, Canada": {
      "city": "Leamington",
      "lat": 42.0531385,
      "lon": -82.5997722,
      "addresstype": "town"
    },
    "Leeds, England": {
      "city": "Leeds",
      "lat": 53.7974185,
      "lon": -1.5437941,
      "addresstype": "city"
    },
    "Leicester, England": {
      "city": "Leicester",
      "lat": 52.6362,
      "lon": -1.1331969,
      "addresstype": "city"
    },
    "Leiderdorp, Netherlands": {
      "city": "Leiderdorp",
      "lat": 52.1617952,
      "lon": 4.5340923,
      "addresstype": "town"
    },
    "Leuchars, Scotland": {
      "city": "Leuchars",
      "lat": 56.381411,
      "lon": -2.8838885,
      "addresstype": "town"
    },
    "Leuven, Belgium": {
      "city": "Leuven",
      "lat": 50.879202,
      "lon": 4.7011675,
      "addresstype": "city"
    },
    "Liberec, Czech Republic": {
      "city": "Liberec",
      "lat": 50.7702648,
      "lon": 15.0583947,
      "addresstype": "city"
    },
    "Lilienfeld, Austria": {
      "city": "Lilienfeld",
      "lat": 48.0149797,
      "lon": 15.5966191,
      "addresstype": "town"
    },
    "Lille, France": {
      "city": "Lille",
      "lat": 50.6365654,
      "lon": 3.0635282,
      "addresstype": "city"
    },
    "Linz, Austria": {
      "city": "Linz",
      "lat": 48.3059078,
      "lon": 14.286198,
      "addresstype": "city"
    },
    "Linzolo, Congo": {
      "city": "Linzolo",
      "lat": -4.413723,
      "lon": 15.1068663,
      "addresstype": "village"
    },
    "Lisbon, Portugal": {
      "city": "Lisbon",
      "lat": 38.7077507,
      "lon": -9.1365919,
      "addresstype": "city"
    },
    "Little Elm, United States": {
      "city": "Little Elm",
      "lat": 33.1626194,
      "lon": -96.9375051,
      "addresstype": "town"
    },
    "Liverpool, England": {
      "city": "Liverpool",
      "lat": 53.3933411,
      "lon": -2.9166389,
      "addresstype": "city"
    },
    "Livno, Bosnia and Herzegovina": {
      "city": "Livno",
      "lat": 43.8259136,
      "lon": 17.0042416,
      "addresstype": "town"
    },
    "Liège, Belgium": {
      "city": "Liège",
      "lat": 50.6450944,
      "lon": 5.5736112,
      "addresstype": "city"
    },
    "Ljubljana, Slovenia": {
      "city": "Ljubljana",
      "lat": 46.0500268,
      "lon": 14.5069289,
      "addresstype": "city"
    },
    "Ljubuški, Bosnia and Herzegovina": {
      "city": "Ljubuški",
      "lat": 43.1963022,
      "lon": 17.5447857,
      "addresstype": "town"
    },
    "Logoualé, Ivory Coast": {
      "city": "Logoualé",
      "lat": 7.1074292,
      "lon": -7.5511449,
      "addresstype": "village"
    },
    "London Borough of Newham, England": {
      "city": "London Borough of Newham",
      "lat": 51.5300157,
      "lon": 0.0293091,
      "addresstype": "city_district"
    },
    "London, England": {
      "city": "London",
      "lat": 51.5074456,
      "lon": -0.1277653,
      "addresstype": "city"
    },
    "Longueuil, Canada": {
      "city": "Longueuil",
      "lat": 45.521906,
      "lon": -73.4644578,
      "addresstype": "city"
    },
    "Los Angeles, United States": {
      "city": "Los Angeles",
      "lat": 34.0536909,
      "lon": -118.242766,
      "addresstype": "city"
    },
    "Los Palacios y Villafranca, Spain": {
      "city": "Los Palacios y Villafranca",
      "lat": 37.1582119,
      "lon": -5.9244567,
      "addresstype": "town"
    },
    "Lucerne, Switzerland": {
      "city": "Lucerne",
      "lat": 47.052144,
      "lon": 8.3058123,
      "addresstype": "city"
    },
    "Ludwigshafen, Germany": {
      "city": "Ludwigshafen",
      "lat": 49.4704113,
      "lon": 8.4381568,
      "addresstype": "city"
    },
    "Lund, Sweden": {
      "city": "Lund",
      "lat": 55.7029296,
      "lon": 13.1929449,
      "addresstype": "city"
    },
    "Lunel, France": {
      "city": "Lunel",
      "lat": 43.6745265,
      "lon": 4.1348062,
      "addresstype": "town"
    },
    "Lyon, France": {
      "city": "Lyon",
      "lat": 45.7578137,
      "lon": 4.8320114,
      "addresstype": "city"
    },
    "M'Bour, Senegal": {
      "city": "M'Bour",
      "lat": 14.4207396,
      "lon": -16.971484,
      "addresstype": "city"
    },
    "M'Sila, Algeria": {
      "city": "M'Sila",
      "lat": 35.7087096,
      "lon": 4.5371411,
      "addresstype": "city"
    },
    "Maasmechelen, Belgium": {
      "city": "Maasmechelen",
      "lat": 50.9634179,
      "lon": 5.6960212,
      "addresstype": "town"
    },
    "Macclesfield, England": {
      "city": "Macclesfield",
      "lat": 53.2606635,
      "lon": -2.1255158,
      "addresstype": "town"
    },
    "Machala, Ecuador": {
      "city": "Machala",
      "lat": -3.2588565,
      "lon": -79.9588518,
      "addresstype": "municipality"
    },
    "Madrid, Spain": {
      "city": "Madrid",
      "lat": 40.416782,
      "lon": -3.703507,
      "addresstype": "city"
    },
    "Magüí Payán, Colombia": {
      "city": "Magüí Payán",
      "lat": 1.7665774,
      "lon": -78.1835713,
      "addresstype": "town"
    },
    "Mahshahr, Iran": {
      "city": "Mahshahr",
      "lat": 30.5577268,
      "lon": 49.1997454,
      "addresstype": "town"
    },
    "Maia, Portugal": {
      "city": "Maia",
      "lat": 41.2373456,
      "lon": -8.6299982,
      "addresstype": "municipality"
    },
    "Mainz, Germany": {
      "city": "Mainz",
      "lat": 49.9995205,
      "lon": 8.2736253,
      "addresstype": "city"
    },
    "Malmö, Sweden": {
      "city": "Malmö",
      "lat": 55.6052931,
      "lon": 13.0001566,
      "addresstype": "city"
    },
    "Manchester, England": {
      "city": "Manchester",
      "lat": 53.4424618,
      "lon": -2.2324547,
      "addresstype": "city"
    },
    "Mannheim, Germany": {
      "city": "Mannheim",
      "lat": 49.4892913,
      "lon": 8.4673098,
      "addresstype": "city"
    },
    "Mansoura, Egypt": {
      "city": "Mansoura",
      "lat": 28.0758921,
      "lon": 30.7503674,
      "addresstype": "village"
    },
    "Manta, Ecuador": {
      "city": "Manta",
      "lat": -0.9486443,
      "lon": -80.7190822,
      "addresstype": "city"
    },
    "Mantes-la-Jolie, France": {
      "city": "Mantes-la-Jolie",
      "lat": 48.9891971,
      "lon": 1.7140683,
      "addresstype": "town"
    },
    "Mar del Plata, Argentina": {
      "city": "Mar del Plata",
      "lat": -37.9976168,
      "lon": -57.5482079,
      "addresstype": "city"
    },
    "Maracaná, Paraguay": {
      "city": "Maracaná",
      "lat": -24.1899734,
      "lon": -56.1197791,
      "addresstype": "village"
    },
    "Marseille, France": {
      "city": "Marseille",
      "lat": 43.2963986,
      "lon": 5.3777888,
      "addresstype": "city"
    },
    "Martigues, France": {
      "city": "Martigues",
      "lat": 43.4057279,
      "lon": 5.0548176,
      "addresstype": "town"
    },
    "Martorell, Spain": {
      "city": "Martorell",
      "lat": 41.4743886,
      "lon": 1.9307159,
      "addresstype": "town"
    },
    "Maysan Governorate, Iraq": {
      "city": "Maysan Governorate",
      "lat": 32.0182542,
      "lon": 47.0695957,
      "addresstype": "state"
    },
    "Mbuji-Mayi, DR Congo": {
      "city": "Mbuji-Mayi",
      "lat": -6.1258942,
      "lon": 23.5998111,
      "addresstype": "city"
    },
    "Meaux, France": {
      "city": "Meaux",
      "lat": 48.9582708,
      "lon": 2.8773541,
      "addresstype": "town"
    },
    "Meckhe, Senegal": {
      "city": "Meckhe",
      "lat": 15.112955,
      "lon": -16.631121,
      "addresstype": "town"
    },
    "Medellín, Colombia": {
      "city": "Medellín",
      "lat": 6.2697324,
      "lon": -75.6025597,
      "addresstype": "city"
    },
    "Medenine, Tunisia": {
      "city": "Medenine",
      "lat": 33.3434014,
      "lon": 10.4910703,
      "addresstype": "town"
    },
    "Medford, United States": {
      "city": "Medford",
      "lat": 42.4184296,
      "lon": -71.1061639,
      "addresstype": "city"
    },
    "Media, United States": {
      "city": "Media",
      "lat": 39.9167783,
      "lon": -75.387693,
      "addresstype": "town"
    },
    "Medina, Saudi Arabia": {
      "city": "Medina",
      "lat": 24.471153,
      "lon": 39.6111216,
      "addresstype": "city"
    },
    "Melbourne, Australia": {
      "city": "Melbourne",
      "lat": -37.8142454,
      "lon": 144.9631732,
      "addresstype": "city"
    },
    "Melilla, Spain": {
      "city": "Melilla",
      "lat": 35.2919028,
      "lon": -2.9407146,
      "addresstype": "city"
    },
    "Meram district, Turkey": {
      "city": "Meram district",
      "lat": 37.8679527,
      "lon": 32.4946514,
      "addresstype": "town"
    },
    "Mexico City, Mexico": {
      "city": "Mexico City",
      "lat": 19.4326296,
      "lon": -99.1331785,
      "addresstype": "city"
    },
    "Meziboří, Czech Republic": {
      "city": "Meziboří",
      "lat": 50.6203084,
      "lon": 13.6071384,
      "addresstype": "town"
    },
    "Mie Prefecture, Japan": {
      "city": "Mie Prefecture",
      "lat": 34.7339685,
      "lon": 136.5154489,
      "addresstype": "province"
    },
    "Milton Keynes, England": {
      "city": "Milton Keynes",
      "lat": 52.0406502,
      "lon": -0.7594092,
      "addresstype": "city"
    },
    "Mindelo, Cape Verde": {
      "city": "Mindelo",
      "lat": 16.8873057,
      "lon": -24.9864064,
      "addresstype": "city"
    },
    "Minya, Egypt": {
      "city": "Minya",
      "lat": 28.0893325,
      "lon": 30.7570623,
      "addresstype": "city"
    },
    "Mitcham, England": {
      "city": "Mitcham",
      "lat": 51.4058006,
      "lon": -0.1640787,
      "addresstype": "suburb"
    },
    "Mito, Japan": {
      "city": "Mito",
      "lat": 36.3659174,
      "lon": 140.4731743,
      "addresstype": "city"
    },
    "Miyamae-ku, Japan": {
      "city": "Miyamae-ku",
      "lat": 35.5891669,
      "lon": 139.5786951,
      "addresstype": "suburb"
    },
    "Mogadishu, Somalia": {
      "city": "Mogadishu",
      "lat": 2.0349312,
      "lon": 45.3419183,
      "addresstype": "city"
    },
    "Mogi das Cruzes, Brazil": {
      "city": "Mogi das Cruzes",
      "lat": -23.5234284,
      "lon": -46.1926671,
      "addresstype": "municipality"
    },
    "Mohammedia, Morocco": {
      "city": "Mohammedia",
      "lat": 33.6958383,
      "lon": -7.3893292,
      "addresstype": "city"
    },
    "Molde Municipality, Norway": {
      "city": "Molde Municipality",
      "lat": 62.6016257,
      "lon": 8.1386208,
      "addresstype": "municipality"
    },
    "Monterrey, Mexico": {
      "city": "Monterrey",
      "lat": 25.6802019,
      "lon": -100.315258,
      "addresstype": "city"
    },
    "Montevideo, Uruguay": {
      "city": "Montevideo",
      "lat": -34.9058916,
      "lon": -56.1913095,
      "addresstype": "city"
    },
    "Montfermeil, France": {
      "city": "Montfermeil",
      "lat": 48.8992679,
      "lon": 2.5660399,
      "addresstype": "town"
    },
    "Montivilliers, France": {
      "city": "Montivilliers",
      "lat": 49.5457966,
      "lon": 0.1920827,
      "addresstype": "town"
    },
    "Montpellier, France": {
      "city": "Montpellier",
      "lat": 43.6112422,
      "lon": 3.8767337,
      "addresstype": "city"
    },
    "Montreal, Canada": {
      "city": "Montreal",
      "lat": 45.5031824,
      "lon": -73.5698065,
      "addresstype": "city"
    },
    "Montreuil, France": {
      "city": "Montreuil",
      "lat": 50.4638918,
      "lon": 1.7631125,
      "addresstype": "village"
    },
    "Monufia Governorate, Egypt": {
      "city": "Monufia Governorate",
      "lat": 30.4370098,
      "lon": 30.7466852,
      "addresstype": "state"
    },
    "Moonee Ponds, Australia": {
      "city": "Moonee Ponds",
      "lat": -37.765575,
      "lon": 144.9212864,
      "addresstype": "suburb"
    },
    "Moordrecht, Netherlands": {
      "city": "Moordrecht",
      "lat": 51.9865065,
      "lon": 4.6698314,
      "addresstype": "village"
    },
    "Mostar, Bosnia and Herzegovina": {
      "city": "Mostar",
      "lat": 43.3435855,
      "lon": 17.8076584,
      "addresstype": "city"
    },
    "Motala, Sweden": {
      "city": "Motala",
      "lat": 58.5420395,
      "lon": 15.041261,
      "addresstype": "town"
    },
    "Mozelos, Portugal": {
      "city": "Mozelos",
      "lat": 40.9995263,
      "lon": -8.5579985,
      "addresstype": "town"
    },
    "Munich, Germany": {
      "city": "Munich",
      "lat": 48.1371079,
      "lon": 11.5753822,
      "addresstype": "city"
    },
    "Murphy, Argentina": {
      "city": "Murphy",
      "lat": -33.6423626,
      "lon": -61.8584359,
      "addresstype": "village"
    },
    "Musina, South Africa": {
      "city": "Musina",
      "lat": -22.3453519,
      "lon": 30.0268526,
      "addresstype": "city"
    },
    "Málaga, Spain": {
      "city": "Málaga",
      "lat": 36.7647913,
      "lon": -4.4422005,
      "addresstype": "municipality"
    },
    "Mülheim an der Ruhr, Germany": {
      "city": "Mülheim an der Ruhr",
      "lat": 51.4272925,
      "lon": 6.8829192,
      "addresstype": "city"
    },
    "Mělník, Czech Republic": {
      "city": "Mělník",
      "lat": 50.3520785,
      "lon": 14.4748281,
      "addresstype": "town"
    },
    "Nagrig, Egypt": null,
    "Najaf, Iraq": {
      "city": "Najaf",
      "lat": 32.0010227,
      "lon": 44.3299926,
      "addresstype": "city"
    },
    "Nampula, Mozambique": {
      "city": "Nampula",
      "lat": -15.1194063,
      "lon": 39.2615886,
      "addresstype": "city"
    },
    "Namsos, Norway": {
      "city": "Namsos",
      "lat": 64.4666372,
      "lon": 11.3345047,
      "addresstype": "municipality"
    },
    "Namyangju, South Korea": {
      "city": "Namyangju",
      "lat": 37.6359398,
      "lon": 127.2165051,
      "addresstype": "city"
    },
    "Nancy, France": {
      "city": "Nancy",
      "lat": 48.6937223,
      "lon": 6.1834097,
      "addresstype": "city"
    },
    "Nantes, France": {
      "city": "Nantes",
      "lat": 47.2186371,
      "lon": -1.5541362,
      "addresstype": "city"
    },
    "Naperville, United States": {
      "city": "Naperville",
      "lat": 41.7728699,
      "lon": -88.1479278,
      "addresstype": "city"
    },
    "Naples, Italy": {
      "city": "Naples",
      "lat": 40.8358846,
      "lon": 14.2487679,
      "addresstype": "city"
    },
    "Navoiy, Uzbekistan": {
      "city": "Navoiy",
      "lat": 40.1034582,
      "lon": 65.3734221,
      "addresstype": "city"
    },
    "Navojoa, Mexico": {
      "city": "Navojoa",
      "lat": 27.0721872,
      "lon": -109.4438227,
      "addresstype": "city"
    },
    "Našice, Croatia": {
      "city": "Našice",
      "lat": 45.4907759,
      "lon": 18.0938075,
      "addresstype": "town"
    },
    "Ndangane, Senegal": {
      "city": "Ndangane",
      "lat": 14.0763643,
      "lon": -15.9246624,
      "addresstype": "village"
    },
    "Neerpelt, Belgium": {
      "city": "Neerpelt",
      "lat": 51.2292367,
      "lon": 5.442759,
      "addresstype": "city"
    },
    "Neftenbach, Switzerland": {
      "city": "Neftenbach",
      "lat": 47.528176,
      "lon": 8.6680365,
      "addresstype": "village"
    },
    "Nemours, France": {
      "city": "Nemours",
      "lat": 48.268026,
      "lon": 2.6953079,
      "addresstype": "town"
    },
    "Neunkirchen, Austria": {
      "city": "Neunkirchen",
      "lat": 47.7221147,
      "lon": 16.081602,
      "addresstype": "town"
    },
    "New Egypt, United States": {
      "city": "New Egypt",
      "lat": 40.0676135,
      "lon": -74.5307093,
      "addresstype": "village"
    },
    "New York City, United States": {
      "city": "New York City",
      "lat": 40.7127281,
      "lon": -74.0060152,
      "addresstype": "city"
    },
    "Newark, United States": {
      "city": "Newark",
      "lat": 40.735657,
      "lon": -74.1723667,
      "addresstype": "city"
    },
    "Newcastle, Australia": {
      "city": "Newcastle",
      "lat": -32.9192953,
      "lon": 151.7795348,
      "addresstype": "suburb"
    },
    "Nexø, Denmark": {
      "city": "Nexø",
      "lat": 55.0650145,
      "lon": 15.1307273,
      "addresstype": "village"
    },
    "Nieuwegein, Netherlands": {
      "city": "Nieuwegein",
      "lat": 52.0367152,
      "lon": 5.0836117,
      "addresstype": "town"
    },
    "Nijmegen, Netherlands": {
      "city": "Nijmegen",
      "lat": 51.8474946,
      "lon": 5.8637771,
      "addresstype": "city"
    },
    "Nishapur, Iran": {
      "city": "Nishapur",
      "lat": 36.2105604,
      "lon": 58.7922291,
      "addresstype": "city"
    },
    "Noisy-le-Grand, France": {
      "city": "Noisy-le-Grand",
      "lat": 48.8492238,
      "lon": 2.5524906,
      "addresstype": "town"
    },
    "Norrköping Matteus church parish, Sweden": null,
    "Norrköping, Sweden": {
      "city": "Norrköping",
      "lat": 58.5909124,
      "lon": 16.1903511,
      "addresstype": "city"
    },
    "Northampton, England": {
      "city": "Northampton",
      "lat": 52.2378853,
      "lon": -0.8963639,
      "addresstype": "town"
    },
    "Norwich, England": {
      "city": "Norwich",
      "lat": 52.6285576,
      "lon": 1.2923954,
      "addresstype": "city"
    },
    "Novi Pazar, Serbia": {
      "city": "Novi Pazar",
      "lat": 43.1406913,
      "lon": 20.518057,
      "addresstype": "city"
    },
    "Novo Hamburgo, Brazil": {
      "city": "Novo Hamburgo",
      "lat": -29.6905705,
      "lon": -51.1429035,
      "addresstype": "municipality"
    },
    "Nueva Palmira, Uruguay": {
      "city": "Nueva Palmira",
      "lat": -33.8710911,
      "lon": -58.4068884,
      "addresstype": "city"
    },
    "Nuevo Berlín, Uruguay": {
      "city": "Nuevo Berlín",
      "lat": -32.9803448,
      "lon": -58.0569456,
      "addresstype": "town"
    },
    "Nuremberg, Germany": {
      "city": "Nuremberg",
      "lat": 49.453872,
      "lon": 11.077298,
      "addresstype": "city"
    },
    "Nyon, Switzerland": {
      "city": "Nyon",
      "lat": 46.3820585,
      "lon": 6.2402791,
      "addresstype": "town"
    },
    "Odumase Krobo, Ghana": {
      "city": "Odumase Krobo",
      "lat": 6.1361198,
      "lon": 0.0053376,
      "addresstype": "town"
    },
    "Olhão, Portugal": {
      "city": "Olhão",
      "lat": 37.0270369,
      "lon": -7.8411287,
      "addresstype": "city"
    },
    "Olmaliq, Uzbekistan": {
      "city": "Olmaliq",
      "lat": 40.845729,
      "lon": 69.6071609,
      "addresstype": "town"
    },
    "Olomouc, Czech Republic": {
      "city": "Olomouc",
      "lat": 49.5940567,
      "lon": 17.251143,
      "addresstype": "city"
    },
    "Oost-Souburg, Netherlands": {
      "city": "Oost-Souburg",
      "lat": 51.4645556,
      "lon": 3.6042063,
      "addresstype": "village"
    },
    "Osaka, Japan": {
      "city": "Osaka",
      "lat": 34.6937569,
      "lon": 135.5014539,
      "addresstype": "city"
    },
    "Osasco, Brazil": {
      "city": "Osasco",
      "lat": -23.5324859,
      "lon": -46.7916801,
      "addresstype": "municipality"
    },
    "Oslo, Norway": {
      "city": "Oslo",
      "lat": 59.9723975,
      "lon": 10.7757292,
      "addresstype": "municipality"
    },
    "Osmangazi, Turkey": {
      "city": "Osmangazi",
      "lat": 40.1982203,
      "lon": 29.0612098,
      "addresstype": "town"
    },
    "Ostend, Belgium": {
      "city": "Ostend",
      "lat": 51.2258565,
      "lon": 2.919496,
      "addresstype": "city"
    },
    "Ouagadougou, Burkina Faso": {
      "city": "Ouagadougou",
      "lat": 12.3681873,
      "lon": -1.5270944,
      "addresstype": "city"
    },
    "Ouragahio, Ivory Coast": {
      "city": "Ouragahio",
      "lat": 6.3083585,
      "lon": -5.9312428,
      "addresstype": "town"
    },
    "Overland Park, United States": {
      "city": "Overland Park",
      "lat": 38.9742502,
      "lon": -94.6851702,
      "addresstype": "city"
    },
    "Oviedo, Spain": {
      "city": "Oviedo",
      "lat": 43.3533452,
      "lon": -5.8795096,
      "addresstype": "city"
    },
    "Paderborn, Germany": {
      "city": "Paderborn",
      "lat": 51.7177044,
      "lon": 8.752653,
      "addresstype": "city"
    },
    "Palma, Spain": {
      "city": "Palma",
      "lat": 39.5695818,
      "lon": 2.6500745,
      "addresstype": "city"
    },
    "Palmerston North, New Zealand": {
      "city": "Palmerston North",
      "lat": -40.356317,
      "lon": 175.6112388,
      "addresstype": "city"
    },
    "Pamplona, Spain": {
      "city": "Pamplona",
      "lat": 42.815686,
      "lon": -1.6522353,
      "addresstype": "city"
    },
    "Panama City, Panama": {
      "city": "Panama City",
      "lat": 8.9714493,
      "lon": -79.5341802,
      "addresstype": "city"
    },
    "Pap, Uzbekistan": {
      "city": "Pap",
      "lat": 40.8743693,
      "lon": 71.0970171,
      "addresstype": "town"
    },
    "Paris, France": {
      "city": "Paris",
      "lat": 48.8534951,
      "lon": 2.3483915,
      "addresstype": "city"
    },
    "Park Ridge, United States": {
      "city": "Park Ridge",
      "lat": 42.0112329,
      "lon": -87.8406031,
      "addresstype": "town"
    },
    "Parma, Italy": {
      "city": "Parma",
      "lat": 44.80153,
      "lon": 10.3279843,
      "addresstype": "city"
    },
    "Pereira, Colombia": {
      "city": "Pereira",
      "lat": 4.7854606,
      "lon": -75.788322,
      "addresstype": "municipality"
    },
    "Perth, Australia": {
      "city": "Perth",
      "lat": -31.9558967,
      "lon": 115.8605784,
      "addresstype": "city"
    },
    "Petit-Goâve, Haiti": {
      "city": "Petit-Goâve",
      "lat": 18.4326935,
      "lon": -72.865384,
      "addresstype": "town"
    },
    "Petite-Rivière-de-l'Artibonite, Haiti": {
      "city": "Petite-Rivière-de-l'Artibonite",
      "lat": 19.1228446,
      "lon": -72.4798459,
      "addresstype": "town"
    },
    "Petrópolis, Brazil": {
      "city": "Petrópolis",
      "lat": -22.5075743,
      "lon": -43.1785356,
      "addresstype": "municipality"
    },
    "Philadelphia, United States": {
      "city": "Philadelphia",
      "lat": 39.9527237,
      "lon": -75.1635262,
      "addresstype": "city"
    },
    "Pickering, Canada": {
      "city": "Pickering",
      "lat": 43.835765,
      "lon": -79.090576,
      "addresstype": "city"
    },
    "Pico Rivera, United States": {
      "city": "Pico Rivera",
      "lat": 33.9830688,
      "lon": -118.096735,
      "addresstype": "town"
    },
    "Pikine, Senegal": {
      "city": "Pikine",
      "lat": 14.751544,
      "lon": -17.396413,
      "addresstype": "city"
    },
    "Piranshahr Sugar Factory, Iran": null,
    "Plumpton, Australia": {
      "city": "Plumpton",
      "lat": -33.7566667,
      "lon": 150.8427778,
      "addresstype": "suburb"
    },
    "Plzeň, Czech Republic": {
      "city": "Plzeň",
      "lat": 49.7477415,
      "lon": 13.3775249,
      "addresstype": "city"
    },
    "Pohang, South Korea": {
      "city": "Pohang",
      "lat": 36.0189315,
      "lon": 129.3429384,
      "addresstype": "city"
    },
    "Point Cook, Australia": {
      "city": "Point Cook",
      "lat": -37.9064862,
      "lon": 144.7533059,
      "addresstype": "suburb"
    },
    "Poissy, France": {
      "city": "Poissy",
      "lat": 48.9274192,
      "lon": 2.0426301,
      "addresstype": "town"
    },
    "Polička, Czech Republic": {
      "city": "Polička",
      "lat": 49.7149137,
      "lon": 16.2653869,
      "addresstype": "town"
    },
    "Polokwane, South Africa": {
      "city": "Polokwane",
      "lat": -23.9058333,
      "lon": 29.4613889,
      "addresstype": "city"
    },
    "Pomigliano d'Arco, Italy": {
      "city": "Pomigliano d'Arco",
      "lat": 40.907912,
      "lon": 14.386233,
      "addresstype": "town"
    },
    "Pontoise, France": {
      "city": "Pontoise",
      "lat": 49.0508845,
      "lon": 2.1008067,
      "addresstype": "town"
    },
    "Port Said, Egypt": {
      "city": "Port Said",
      "lat": 31.263235,
      "lon": 32.305505,
      "addresstype": "city"
    },
    "Port Williams, Canada": {
      "city": "Port Williams",
      "lat": 45.0979991,
      "lon": -64.4100054,
      "addresstype": "village"
    },
    "Port-au-Prince, Haiti": {
      "city": "Port-au-Prince",
      "lat": 18.547327,
      "lon": -72.3395928,
      "addresstype": "city"
    },
    "Porto Alegre, Brazil": {
      "city": "Porto Alegre",
      "lat": -30.0324999,
      "lon": -51.2303767,
      "addresstype": "district"
    },
    "Posušje, Bosnia and Herzegovina": {
      "city": "Posušje",
      "lat": 43.4712288,
      "lon": 17.3271281,
      "addresstype": "town"
    },
    "Prague, Czech Republic": {
      "city": "Prague",
      "lat": 50.0874654,
      "lon": 14.4212535,
      "addresstype": "city"
    },
    "Praia, Cape Verde": {
      "city": "Praia",
      "lat": 14.9162811,
      "lon": -23.5095095,
      "addresstype": "city"
    },
    "Pujato, Argentina": {
      "city": "Pujato",
      "lat": -33.0176021,
      "lon": -61.0430978,
      "addresstype": "village"
    },
    "Pulheim, Germany": {
      "city": "Pulheim",
      "lat": 50.9979888,
      "lon": 6.8025409,
      "addresstype": "town"
    },
    "Punta del Este, Uruguay": {
      "city": "Punta del Este",
      "lat": -34.9632342,
      "lon": -54.9439981,
      "addresstype": "city"
    },
    "Qaem Shahr, Iran": {
      "city": "Qaem Shahr",
      "lat": 36.4636399,
      "lon": 52.8579311,
      "addresstype": "city"
    },
    "Qarshi, Uzbekistan": {
      "city": "Qarshi",
      "lat": 38.839824,
      "lon": 65.7927794,
      "addresstype": "city"
    },
    "Qatif governorate, Saudi Arabia": {
      "city": "Qatif governorate",
      "lat": 26.6078257,
      "lon": 49.9196611,
      "addresstype": "province"
    },
    "Qatif, Saudi Arabia": {
      "city": "Qatif",
      "lat": 26.5586004,
      "lon": 50.0087399,
      "addresstype": "town"
    },
    "Qazvin, Iran": {
      "city": "Qazvin",
      "lat": 36.2691723,
      "lon": 50.005753,
      "addresstype": "city"
    },
    "Quibdó, Colombia": {
      "city": "Quibdó",
      "lat": 5.6912838,
      "lon": -76.6531337,
      "addresstype": "city"
    },
    "Quito, Ecuador": {
      "city": "Quito",
      "lat": -0.2201641,
      "lon": -78.5123274,
      "addresstype": "city"
    },
    "Racine, United States": {
      "city": "Racine",
      "lat": 42.7313756,
      "lon": -87.7834769,
      "addresstype": "city"
    },
    "Rafael Calzada, Argentina": {
      "city": "Rafael Calzada",
      "lat": -34.7916002,
      "lon": -58.3507175,
      "addresstype": "town"
    },
    "Rafaela, Argentina": {
      "city": "Rafaela",
      "lat": -31.2526923,
      "lon": -61.4916758,
      "addresstype": "city"
    },
    "Redbridge, England": {
      "city": "Redbridge",
      "lat": 51.5765828,
      "lon": 0.0453401,
      "addresstype": "suburb"
    },
    "Regensburg, Germany": {
      "city": "Regensburg",
      "lat": 49.0195333,
      "lon": 12.0974869,
      "addresstype": "city"
    },
    "Reggiolo, Italy": {
      "city": "Reggiolo",
      "lat": 44.9185339,
      "lon": 10.8042114,
      "addresstype": "village"
    },
    "Rennes, France": {
      "city": "Rennes",
      "lat": 48.1113387,
      "lon": -1.6800198,
      "addresstype": "city"
    },
    "Rheinfelden, Switzerland": {
      "city": "Rheinfelden",
      "lat": 47.5543859,
      "lon": 7.7922905,
      "addresstype": "town"
    },
    "Ribeira Grande, Cape Verde": {
      "city": "Ribeira Grande",
      "lat": 17.1833547,
      "lon": -25.0643795,
      "addresstype": "town"
    },
    "Richmond, United States": {
      "city": "Richmond",
      "lat": 37.5385087,
      "lon": -77.43428,
      "addresstype": "city"
    },
    "Rijeka, Croatia": {
      "city": "Rijeka",
      "lat": 45.3267976,
      "lon": 14.442208,
      "addresstype": "city"
    },
    "Rio Branco, Brazil": {
      "city": "Rio Branco",
      "lat": -9.9765362,
      "lon": -67.8220778,
      "addresstype": "municipality"
    },
    "Rio de Janeiro, Brazil": {
      "city": "Rio de Janeiro",
      "lat": -22.9110137,
      "lon": -43.2093727,
      "addresstype": "municipality"
    },
    "Riobamba, Ecuador": {
      "city": "Riobamba",
      "lat": -1.6732765,
      "lon": -78.6482479,
      "addresstype": "city"
    },
    "Rivera, Uruguay": {
      "city": "Rivera",
      "lat": -30.900058,
      "lon": -55.5408151,
      "addresstype": "city"
    },
    "Riyadh, Saudi Arabia": {
      "city": "Riyadh",
      "lat": 24.638916,
      "lon": 46.7160104,
      "addresstype": "city"
    },
    "Rome, Italy": {
      "city": "Rome",
      "lat": 41.8933203,
      "lon": 12.4829321,
      "addresstype": "city"
    },
    "Roquetas de Mar, Spain": {
      "city": "Roquetas de Mar",
      "lat": 36.7630203,
      "lon": -2.6115886,
      "addresstype": "town"
    },
    "Rosa Zárate, Ecuador": null,
    "Rosario, Argentina": {
      "city": "Rosario",
      "lat": -32.9593609,
      "lon": -60.6617024,
      "addresstype": "city"
    },
    "Rosice, Czech Republic": {
      "city": "Rosice",
      "lat": 49.1825874,
      "lon": 16.3878251,
      "addresstype": "town"
    },
    "Rosmalen, Netherlands": {
      "city": "Rosmalen",
      "lat": 51.71866,
      "lon": 5.3629244,
      "addresstype": "town"
    },
    "Rothrist, Switzerland": {
      "city": "Rothrist",
      "lat": 47.3029125,
      "lon": 7.8826232,
      "addresstype": "village"
    },
    "Rotterdam, Netherlands": {
      "city": "Rotterdam",
      "lat": 51.9244424,
      "lon": 4.47775,
      "addresstype": "city"
    },
    "Rottweil, Germany": {
      "city": "Rottweil",
      "lat": 48.1678244,
      "lon": 8.626979,
      "addresstype": "town"
    },
    "Roubaix, France": {
      "city": "Roubaix",
      "lat": 50.6915893,
      "lon": 3.1741734,
      "addresstype": "town"
    },
    "Rouen, France": {
      "city": "Rouen",
      "lat": 49.4404591,
      "lon": 1.0939658,
      "addresstype": "city"
    },
    "Rueil-Malmaison, France": {
      "city": "Rueil-Malmaison",
      "lat": 48.87778,
      "lon": 2.1802832,
      "addresstype": "town"
    },
    "Russeifa, Jordan": {
      "city": "Russeifa",
      "lat": 32.0174989,
      "lon": 36.0434611,
      "addresstype": "city"
    },
    "Rutherglen, Scotland": {
      "city": "Rutherglen",
      "lat": 55.8284315,
      "lon": -4.2134405,
      "addresstype": "town"
    },
    "Rælingen, Norway": {
      "city": "Rælingen",
      "lat": 59.8910114,
      "lon": 11.0789878,
      "addresstype": "municipality"
    },
    "Saijo, Japan": {
      "city": "Saijo",
      "lat": 33.9194466,
      "lon": 133.1813268,
      "addresstype": "city"
    },
    "Saint-Alexandre, Canada": {
      "city": "Saint-Alexandre",
      "lat": 47.6832387,
      "lon": -69.6239716,
      "addresstype": "village"
    },
    "Saint-Denis, France": {
      "city": "Saint-Denis",
      "lat": 48.9383732,
      "lon": 2.3627508,
      "addresstype": "city"
    },
    "Saint-Dié-des-Vosges, France": {
      "city": "Saint-Dié-des-Vosges",
      "lat": 48.2872305,
      "lon": 6.9474449,
      "addresstype": "town"
    },
    "Saint-Louis, Senegal": {
      "city": "Saint-Louis",
      "lat": 16.0280445,
      "lon": -16.5048686,
      "addresstype": "city"
    },
    "Saint-Marc, Haiti": {
      "city": "Saint-Marc",
      "lat": 19.1020269,
      "lon": -72.699511,
      "addresstype": "city"
    },
    "Saint-Maurice, France": {
      "city": "Saint-Maurice",
      "lat": 48.3275249,
      "lon": 7.3363439,
      "addresstype": "village"
    },
    "Sainte-Ode, Belgium": {
      "city": "Sainte-Ode",
      "lat": 50.0166761,
      "lon": 5.5595141,
      "addresstype": "municipality"
    },
    "Saitama Prefecture, Japan": {
      "city": "Saitama Prefecture",
      "lat": 35.9754168,
      "lon": 139.4160114,
      "addresstype": "province"
    },
    "Sakakah, Saudi Arabia": {
      "city": "Sakakah",
      "lat": 29.9784008,
      "lon": 40.2047701,
      "addresstype": "province"
    },
    "Sakiet Ezzit, Tunisia": {
      "city": "Sakiet Ezzit",
      "lat": 34.8023823,
      "lon": 10.7613107,
      "addresstype": "town"
    },
    "Salamanca, Mexico": {
      "city": "Salamanca",
      "lat": 20.571358,
      "lon": -101.192444,
      "addresstype": "city"
    },
    "Sallent de Llobregat, Spain": null,
    "Salon-de-Provence, France": {
      "city": "Salon-de-Provence",
      "lat": 43.6405237,
      "lon": 5.0980225,
      "addresstype": "town"
    },
    "Saltcoats, Scotland": {
      "city": "Saltcoats",
      "lat": 55.6332429,
      "lon": -4.7887547,
      "addresstype": "town"
    },
    "Salvador, Brazil": {
      "city": "Salvador",
      "lat": -12.9822499,
      "lon": -38.4812772,
      "addresstype": "municipality"
    },
    "Salzburg, Austria": {
      "city": "Salzburg",
      "lat": 47.7981346,
      "lon": 13.0464806,
      "addresstype": "city"
    },
    "Samarkand, Uzbekistan": {
      "city": "Samarkand",
      "lat": 39.6550017,
      "lon": 66.9756954,
      "addresstype": "city"
    },
    "Sambreville, Belgium": {
      "city": "Sambreville",
      "lat": 50.4490552,
      "lon": 4.6108156,
      "addresstype": "town"
    },
    "Samfya, Zambia": {
      "city": "Samfya",
      "lat": -11.3684948,
      "lon": 29.5516598,
      "addresstype": "town"
    },
    "San Juan Bautista, Paraguay": {
      "city": "San Juan Bautista",
      "lat": -26.6690194,
      "lon": -57.1455794,
      "addresstype": "town"
    },
    "San Justo, Argentina": {
      "city": "San Justo",
      "lat": -34.6774186,
      "lon": -58.5607837,
      "addresstype": "city"
    },
    "San Lorenzo, Argentina": {
      "city": "San Lorenzo",
      "lat": -32.7454865,
      "lon": -60.743091,
      "addresstype": "town"
    },
    "San Lorenzo, Ecuador": {
      "city": "San Lorenzo",
      "lat": 1.2883387,
      "lon": -78.8369504,
      "addresstype": "municipality"
    },
    "San Lorenzo, Paraguay": {
      "city": "San Lorenzo",
      "lat": -25.3425224,
      "lon": -57.509397,
      "addresstype": "city"
    },
    "San Nicolás de los Arroyos, Argentina": {
      "city": "San Nicolás de los Arroyos",
      "lat": -33.3277089,
      "lon": -60.2165909,
      "addresstype": "city"
    },
    "San Sebastián, Spain": {
      "city": "San Sebastián",
      "lat": 43.3224219,
      "lon": -1.9838889,
      "addresstype": "city"
    },
    "Sandnes Municipality, Norway": {
      "city": "Sandnes Municipality",
      "lat": 58.9831321,
      "lon": 6.394641,
      "addresstype": "municipality"
    },
    "Santa Cruz de Tenerife, Spain": {
      "city": "Santa Cruz de Tenerife",
      "lat": 28.467178,
      "lon": -16.2507843,
      "addresstype": "city"
    },
    "Santa Marta, Colombia": {
      "city": "Santa Marta",
      "lat": 11.2320944,
      "lon": -74.1950916,
      "addresstype": "city"
    },
    "Santa Rosa, Argentina": {
      "city": "Santa Rosa",
      "lat": -36.6203503,
      "lon": -64.2905765,
      "addresstype": "city"
    },
    "Santander, Spain": {
      "city": "Santander",
      "lat": 43.4618932,
      "lon": -3.8100255,
      "addresstype": "city"
    },
    "Santiago de Compostela, Spain": {
      "city": "Santiago de Compostela",
      "lat": 42.9064576,
      "lon": -8.5192983,
      "addresstype": "municipality"
    },
    "Santo Domingo, Ecuador": {
      "city": "Santo Domingo",
      "lat": -0.2546212,
      "lon": -79.1686724,
      "addresstype": "municipality"
    },
    "Sarab-e Yas, Iran": null,
    "Sarajevo, Bosnia and Herzegovina": {
      "city": "Sarajevo",
      "lat": 43.8570713,
      "lon": 18.4126147,
      "addresstype": "city"
    },
    "Sarandí, Argentina": {
      "city": "Sarandí",
      "lat": -34.680758,
      "lon": -58.3463289,
      "addresstype": "town"
    },
    "Sari, Iran": {
      "city": "Sari",
      "lat": 36.5537458,
      "lon": 53.0602761,
      "addresstype": "city"
    },
    "Sayram, Kazakhstan": {
      "city": "Sayram",
      "lat": 42.3004979,
      "lon": 69.7599716,
      "addresstype": "suburb"
    },
    "Schaerbeek, Belgium": {
      "city": "Schaerbeek",
      "lat": 50.8676041,
      "lon": 4.3737121,
      "addresstype": "town"
    },
    "Scheibbs, Austria": {
      "city": "Scheibbs",
      "lat": 48.0053866,
      "lon": 15.1674871,
      "addresstype": "town"
    },
    "Sebokeng, South Africa": {
      "city": "Sebokeng",
      "lat": -26.560278,
      "lon": 27.8625,
      "addresstype": "town"
    },
    "Senlis, France": {
      "city": "Senlis",
      "lat": 50.5331612,
      "lon": 2.1523287,
      "addresstype": "village"
    },
    "Seongnam, South Korea": {
      "city": "Seongnam",
      "lat": 37.4201556,
      "lon": 127.1262092,
      "addresstype": "city"
    },
    "Seoul, South Korea": {
      "city": "Seoul",
      "lat": 37.5666791,
      "lon": 126.9782914,
      "addresstype": "city"
    },
    "Sevran, France": {
      "city": "Sevran",
      "lat": 48.937634,
      "lon": 2.5298164,
      "addresstype": "town"
    },
    "Sfax, Tunisia": {
      "city": "Sfax",
      "lat": 34.7394361,
      "lon": 10.7604024,
      "addresstype": "city"
    },
    "Sharpeville, South Africa": {
      "city": "Sharpeville",
      "lat": -26.685,
      "lon": 27.8758333,
      "addresstype": "neighbourhood"
    },
    "Sheffield, England": {
      "city": "Sheffield",
      "lat": 53.3806626,
      "lon": -1.4702278,
      "addresstype": "city"
    },
    "Shiraz, Iran": {
      "city": "Shiraz",
      "lat": 29.6060218,
      "lon": 52.5378041,
      "addresstype": "city"
    },
    "Shizuoka, Japan": {
      "city": "Shizuoka",
      "lat": 34.9751974,
      "lon": 138.3831697,
      "addresstype": "city"
    },
    "Shorqorgon, Uzbekistan": null,
    "Shushufindi Canton, Ecuador": {
      "city": "Shushufindi Canton",
      "lat": -0.1471029,
      "lon": -76.6119395,
      "addresstype": "municipality"
    },
    "Sidi Kacem, Morocco": {
      "city": "Sidi Kacem",
      "lat": 34.226412,
      "lon": -5.711434,
      "addresstype": "city"
    },
    "Sint-Pieters-Leeuw, Belgium": {
      "city": "Sint-Pieters-Leeuw",
      "lat": 50.7800261,
      "lon": 4.2443604,
      "addresstype": "town"
    },
    "Sintra, Portugal": {
      "city": "Sintra",
      "lat": 38.8355446,
      "lon": -9.3522371,
      "addresstype": "municipality"
    },
    "Sirdaryo, Uzbekistan": {
      "city": "Sirdaryo",
      "lat": 40.3737191,
      "lon": 68.4341132,
      "addresstype": "state"
    },
    "Skalka, Czech Republic": {
      "city": "Skalka",
      "lat": 49.0381823,
      "lon": 17.2053355,
      "addresstype": "municipality"
    },
    "Solihull, England": {
      "city": "Solihull",
      "lat": 52.4130189,
      "lon": -1.7768935,
      "addresstype": "town"
    },
    "Solin, Croatia": {
      "city": "Solin",
      "lat": 43.5442913,
      "lon": 16.4853016,
      "addresstype": "town"
    },
    "Solna, Sweden": {
      "city": "Solna",
      "lat": 59.366667,
      "lon": 18.016667,
      "addresstype": "municipality"
    },
    "Solothurn, Switzerland": {
      "city": "Solothurn",
      "lat": 47.2081355,
      "lon": 7.5384045,
      "addresstype": "town"
    },
    "Sousse, Tunisia": {
      "city": "Sousse",
      "lat": 35.8288284,
      "lon": 10.6405254,
      "addresstype": "city"
    },
    "Soweto, South Africa": {
      "city": "Soweto",
      "lat": -26.2227778,
      "lon": 27.89,
      "addresstype": "city"
    },
    "Spijkenisse, Netherlands": {
      "city": "Spijkenisse",
      "lat": 51.8464881,
      "lon": 4.3287681,
      "addresstype": "town"
    },
    "Split, Croatia": {
      "city": "Split",
      "lat": 43.5116383,
      "lon": 16.4399659,
      "addresstype": "city"
    },
    "Spånga-Kista församling, Sweden": null,
    "Spånga-Tensta city district, Sweden": null,
    "St. Albert, Canada": {
      "city": "St. Albert",
      "lat": 53.633239,
      "lon": -113.628845,
      "addresstype": "city"
    },
    "St. Louis, United States": {
      "city": "St. Louis",
      "lat": 38.6254063,
      "lon": -90.190009,
      "addresstype": "city"
    },
    "Stavanger, Norway": {
      "city": "Stavanger",
      "lat": 58.9699675,
      "lon": 5.7318101,
      "addresstype": "municipality"
    },
    "Stockholm, Sweden": {
      "city": "Stockholm",
      "lat": 59.3251172,
      "lon": 18.0710935,
      "addresstype": "city"
    },
    "Stockport, England": {
      "city": "Stockport",
      "lat": 53.407901,
      "lon": -2.160243,
      "addresstype": "town"
    },
    "Stourbridge, England": {
      "city": "Stourbridge",
      "lat": 52.4577615,
      "lon": -2.1474345,
      "addresstype": "town"
    },
    "Strakonice, Czech Republic": {
      "city": "Strakonice",
      "lat": 49.261277,
      "lon": 13.9025043,
      "addresstype": "town"
    },
    "Strasbourg, France": {
      "city": "Strasbourg",
      "lat": 48.584614,
      "lon": 7.7507127,
      "addresstype": "city"
    },
    "Strombeek-Bever, Belgium": {
      "city": "Strombeek-Bever",
      "lat": 50.9109938,
      "lon": 4.3422525,
      "addresstype": "city"
    },
    "Stuttgart, Germany": {
      "city": "Stuttgart",
      "lat": 48.7784485,
      "lon": 9.1800132,
      "addresstype": "city"
    },
    "Sunderland, England": {
      "city": "Sunderland",
      "lat": 54.9058512,
      "lon": -1.3828727,
      "addresstype": "city"
    },
    "Sunyani, Ghana": {
      "city": "Sunyani",
      "lat": 7.3384389,
      "lon": -2.3309226,
      "addresstype": "city"
    },
    "Suwon, South Korea": {
      "city": "Suwon",
      "lat": 37.2633325,
      "lon": 127.0287472,
      "addresstype": "city"
    },
    "Sydney, Australia": {
      "city": "Sydney",
      "lat": -33.8698439,
      "lon": 151.2082848,
      "addresstype": "city"
    },
    "São Gonçalo, Brazil": {
      "city": "São Gonçalo",
      "lat": -22.8219014,
      "lon": -43.0309252,
      "addresstype": "municipality"
    },
    "São José dos Campos, Brazil": {
      "city": "São José dos Campos",
      "lat": -23.1867782,
      "lon": -45.8854538,
      "addresstype": "municipality"
    },
    "São Paulo, Brazil": {
      "city": "São Paulo",
      "lat": -23.5506507,
      "lon": -46.6333824,
      "addresstype": "municipality"
    },
    "Säter, Sweden": {
      "city": "Säter",
      "lat": 60.3469718,
      "lon": 15.7486886,
      "addresstype": "town"
    },
    "Ta'if, Saudi Arabia": {
      "city": "Ta'if",
      "lat": 21.2702801,
      "lon": 40.4158308,
      "addresstype": "city"
    },
    "Tabarre, Haiti": {
      "city": "Tabarre",
      "lat": 18.5619986,
      "lon": -72.2507176,
      "addresstype": "city"
    },