{
  "source": "nominatim.openstreetmap.org",
  "updated": "2026-07-13",
  "cities": {
    "12th arrondissement of Paris, France": null,
    "14th arrondissement of Paris, France": null,
    "20th arrondissement of Paris, France": null,
    "3rd arrondissement of Lyon, France": null,
    "8th arrondissement of Lyon, France": null,
    "Aachen, Germany": {
      "city": "Aachen",
      "lat": 50.776351,
      "lon": 6.083862
    },
    "Aaigem, Belgium": {
      "city": "Aaigem",
      "lat": 50.8894174,
      "lon": 3.9366909
    },
    "Aarau, Switzerland": {
      "city": "Aarau",
      "lat": 47.3927146,
      "lon": 8.0444448
    },
    "Aarhus, Denmark": {
      "city": "Aarhus",
      "lat": 56.1496278,
      "lon": 10.2134046
    },
    "Aberdeen, Scotland": {
      "city": "Aberdeen",
      "lat": 57.1482429,
      "lon": -2.0928095
    },
    "Abidjan, Ivory Coast": {
      "city": "Abidjan",
      "lat": 5.320357,
      "lon": -4.016107
    },
    "Abiko, Japan": {
      "city": "Abiko",
      "lat": 35.863999,
      "lon": 140.0280653
    },
    "Abuja, Nigeria": {
      "city": "Abuja",
      "lat": 9.0643305,
      "lon": 7.4892974
    },
    "Accra, Ghana": {
      "city": "Accra",
      "lat": 5.5571096,
      "lon": -0.2012376
    },
    "Adelaide, Australia": {
      "city": "Adelaide",
      "lat": -34.9281805,
      "lon": 138.5999312
    },
    "Adjamé, Ivory Coast": {
      "city": "Adjamé",
      "lat": 5.3531211,
      "lon": -4.0222008
    },
    "Adligenswil, Switzerland": {
      "city": "Adligenswil",
      "lat": 47.070535,
      "lon": 8.368244
    },
    "Agen, France": {
      "city": "Agen",
      "lat": 44.2015827,
      "lon": 0.6176112
    },
    "Ahome Municipality, Mexico": null,
    "Aix-les-Bains, France": {
      "city": "Aix-les-Bains",
      "lat": 45.6886292,
      "lon": 5.9146362
    },
    "Ajaccio, France": {
      "city": "Ajaccio",
      "lat": 41.9263991,
      "lon": 8.7376029
    },
    "Ajax, Canada": {
      "city": "Ajax",
      "lat": 43.8505287,
      "lon": -79.0208814
    },
    "Al Diwaniyah, Iraq": {
      "city": "Al Diwaniyah",
      "lat": 31.9853304,
      "lon": 44.9236266
    },
    "Al-Ahsa Oasis, Saudi Arabia": {
      "city": "Al-Ahsa Oasis",
      "lat": 24.7360094,
      "lon": 46.7203039
    },
    "Albacete, Spain": {
      "city": "Albacete",
      "lat": 38.9950921,
      "lon": -1.8559154
    },
    "Alella, Spain": {
      "city": "Alella",
      "lat": 41.4955603,
      "lon": 2.2935325
    },
    "Alfredo Baquerizo Moreno, Ecuador": {
      "city": "Alfredo Baquerizo Moreno",
      "lat": -1.9494337,
      "lon": -79.5495283
    },
    "Algueirão - Mem Martins, Portugal": {
      "city": "Algueirão - Mem Martins",
      "lat": 38.8033024,
      "lon": -9.3348119
    },
    "Almada, Portugal": {
      "city": "Almada",
      "lat": 38.6831302,
      "lon": -9.1576301
    },
    "Almere, Netherlands": {
      "city": "Almere",
      "lat": 52.4417513,
      "lon": 5.2092943
    },
    "Altındağ, Turkey": {
      "city": "Altındağ",
      "lat": 39.9523587,
      "lon": 32.8662025
    },
    "Amadora, Portugal": {
      "city": "Amadora",
      "lat": 38.758959,
      "lon": -9.2365233
    },
    "Amagasaki, Japan": {
      "city": "Amagasaki",
      "lat": 34.7339783,
      "lon": 135.4064015
    },
    "Amalfi, Colombia": {
      "city": "Amalfi",
      "lat": 6.9070097,
      "lon": -75.0735908
    },
    "Amberg, Germany": {
      "city": "Amberg",
      "lat": 49.4543662,
      "lon": 11.8474021
    },
    "Amman, Jordan": {
      "city": "Amman",
      "lat": 31.9515694,
      "lon": 35.9239625
    },
    "Amsterdam, Netherlands": {
      "city": "Amsterdam",
      "lat": 52.3730796,
      "lon": 4.8924534
    },
    "Anchorage, United States": {
      "city": "Anchorage",
      "lat": 61.2163129,
      "lon": -149.894852
    },
    "Angers, France": {
      "city": "Angers",
      "lat": 47.4739884,
      "lon": -0.5515588
    },
    "Ankawa, Iraq": {
      "city": "Ankawa",
      "lat": 36.2325997,
      "lon": 43.9972173
    },
    "Ansan, South Korea": {
      "city": "Ansan",
      "lat": 37.3217152,
      "lon": 126.8308604
    },
    "Antalya, Turkey": {
      "city": "Antalya",
      "lat": 36.8865728,
      "lon": 30.7030242
    },
    "Antwerp, Belgium": {
      "city": "Antwerp",
      "lat": 51.2211097,
      "lon": 4.3997081
    },
    "Appleton, United States": {
      "city": "Appleton",
      "lat": 44.2613967,
      "lon": -88.4069744
    },
    "Aqaba, Jordan": {
      "city": "Aqaba",
      "lat": 29.5266483,
      "lon": 35.0075433
    },
    "Ar Ramtha, Jordan": {
      "city": "Ar Ramtha",
      "lat": 32.559167,
      "lon": 36.006944
    },
    "Arak, Iran": {
      "city": "Arak",
      "lat": 34.0862719,
      "lon": 49.6893884
    },
    "Aristóbulo del Valle, Argentina": {
      "city": "Aristóbulo del Valle",
      "lat": -27.099185,
      "lon": -54.8935248
    },
    "Arkel, Netherlands": {
      "city": "Arkel",
      "lat": 51.8634805,
      "lon": 4.993608
    },
    "Arlington, United States": {
      "city": "Arlington",
      "lat": 32.7355816,
      "lon": -97.1071186
    },
    "Arlon, Belgium": {
      "city": "Arlon",
      "lat": 49.6834601,
      "lon": 5.8167711
    },
    "Arnemuiden, Netherlands": {
      "city": "Arnemuiden",
      "lat": 51.5000009,
      "lon": 3.6762457
    },
    "Arnhem, Netherlands": {
      "city": "Arnhem",
      "lat": 52.0056642,
      "lon": 5.8762345
    },
    "Arpajon, France": {
      "city": "Arpajon",
      "lat": 44.9034428,
      "lon": 2.4570176
    },
    "Artigas, Uruguay": {
      "city": "Artigas",
      "lat": -30.6170756,
      "lon": -56.9373451
    },
    "Asse, Belgium": {
      "city": "Asse",
      "lat": 50.9094333,
      "lon": 4.2015646
    },
    "Assomada, Cape Verde": {
      "city": "Assomada",
      "lat": 15.097635,
      "lon": -23.6668745
    },
    "Asteasu, Spain": {
      "city": "Asteasu",
      "lat": 43.192859,
      "lon": -2.0953446
    },
    "Asunción, Paraguay": {
      "city": "Asunción",
      "lat": -25.2800459,
      "lon": -57.6343814
    },
    "Aubervilliers, France": {
      "city": "Aubervilliers",
      "lat": 48.9146078,
      "lon": 2.3821895
    },
    "Auckland, New Zealand": {
      "city": "Auckland",
      "lat": -36.852095,
      "lon": 174.7631803
    },
    "Autlán de Navarro Municipality, Mexico": null,
    "Aveiro, Portugal": {
      "city": "Aveiro",
      "lat": 40.640496,
      "lon": -8.6537841
    },
    "Aïn M'lila, Algeria": {
      "city": "Aïn M'lila",
      "lat": 36.0375444,
      "lon": 6.570986
    },
    "Babahoyo, Ecuador": {
      "city": "Babahoyo",
      "lat": -1.8762599,
      "lon": -79.5068917
    },
    "Backnang, Germany": {
      "city": "Backnang",
      "lat": 48.9468454,
      "lon": 9.4303638
    },
    "Baghdad, Iraq": {
      "city": "Baghdad",
      "lat": 33.3061701,
      "lon": 44.3872213
    },
    "Bahmai County, Iran": {
      "city": "Bahmai County",
      "lat": 30.9838624,
      "lon": 50.0792541
    },
    "Bahnemir, Iran": {
      "city": "Bahnemir",
      "lat": 36.6702899,
      "lon": 52.7620524
    },
    "Bahía Blanca, Argentina": {
      "city": "Bahía Blanca",
      "lat": -38.7176522,
      "lon": -62.2654871
    },
    "Baie-Mahault, France": {
      "city": "Baie-Mahault",
      "lat": 16.2679458,
      "lon": -61.5870766
    },
    "Balaguer, Spain": {
      "city": "Balaguer",
      "lat": 41.7896408,
      "lon": 0.8050711
    },
    "Balfron, Scotland": {
      "city": "Balfron",
      "lat": 56.0680711,
      "lon": -4.3356705
    },
    "Bambali, Senegal": {
      "city": "Bambali",
      "lat": 12.655907,
      "lon": -15.4529962
    },
    "Bandar-e Anzali, Iran": {
      "city": "Bandar-e Anzali",
      "lat": 37.4716356,
      "lon": 49.4685904
    },
    "Banja Luka, Bosnia and Herzegovina": {
      "city": "Banja Luka",
      "lat": 44.7720845,
      "lon": 17.1917651
    },
    "Barcelona, Spain": {
      "city": "Barcelona",
      "lat": 41.3825802,
      "lon": 2.177073
    },
    "Barnet, England": {
      "city": "Barnet",
      "lat": 51.65309,
      "lon": -0.2002261
    },
    "Barnsley, England": {
      "city": "Barnsley",
      "lat": 53.5527719,
      "lon": -1.4827755
    },
    "Barrancas, Colombia": {
      "city": "Barrancas",
      "lat": 10.9541684,
      "lon": -72.7888637
    },
    "Barreiro, Portugal": {
      "city": "Barreiro",
      "lat": 38.6340657,
      "lon": -9.0478559
    },
    "Basel, Switzerland": {
      "city": "Basel",
      "lat": 47.5581077,
      "lon": 7.5878261
    },
    "Bayat, Turkey": {
      "city": "Bayat",
      "lat": 40.5789741,
      "lon": 34.926489
    },
    "Bayonne, France": {
      "city": "Bayonne",
      "lat": 43.4945144,
      "lon": -1.4736657
    },
    "Bear, United States": {
      "city": "Bear",
      "lat": 39.6185861,
      "lon": -75.6795539
    },
    "Bechem, Ghana": {
      "city": "Bechem",
      "lat": 7.08778,
      "lon": -2.0246
    },
    "Beheira Governorate, Egypt": {
      "city": "Beheira Governorate",
      "lat": 30.7915206,
      "lon": 30.3465488
    },
    "Belén de Escobar, Argentina": {
      "city": "Belén de Escobar",
      "lat": -34.3453213,
      "lon": -58.7950701
    },
    "Benavente, Portugal": {
      "city": "Benavente",
      "lat": 38.9826508,
      "lon": -8.8095788
    },
    "Berchem-Sainte-Agathe, Belgium": {
      "city": "Berchem-Sainte-Agathe",
      "lat": 50.8649231,
      "lon": 4.2946734
    },
    "Bergen, Norway": {
      "city": "Bergen",
      "lat": 60.3943055,
      "lon": 5.3259192
    },
    "Berlin, Germany": {
      "city": "Berlin",
      "lat": 52.5173885,
      "lon": 13.3951309
    },
    "Berwyn, United States": {
      "city": "Berwyn",
      "lat": 41.8505874,
      "lon": -87.7936685
    },
    "Bethlehem, South Africa": {
      "city": "Bethlehem",
      "lat": -28.2308333,
      "lon": 28.3088889
    },
    "Bicas, Brazil": {
      "city": "Bicas",
      "lat": -21.7213723,
      "lon": -43.0604327
    },
    "Biel/Bienne, Switzerland": {
      "city": "Biel/Bienne",
      "lat": 47.1402077,
      "lon": 7.2439029
    },
    "Bilbao, Spain": {
      "city": "Bilbao",
      "lat": 43.2630018,
      "lon": -2.9350039
    },
    "Bingerville, Ivory Coast": {
      "city": "Bingerville",
      "lat": 5.3577727,
      "lon": -3.8885591
    },
    "Binningen, Switzerland": {
      "city": "Binningen",
      "lat": 47.53656,
      "lon": 7.570077
    },
    "Birmingham, United States": {
      "city": "Birmingham",
      "lat": 33.5206824,
      "lon": -86.8024326
    },
    "Bishop Lavis, South Africa": {
      "city": "Bishop Lavis",
      "lat": -33.9486111,
      "lon": 18.5758333
    },
    "Bloemfontein, South Africa": {
      "city": "Bloemfontein",
      "lat": -29.116395,
      "lon": 26.215496
    },
    "Blyth, England": {
      "city": "Blyth",
      "lat": 55.1270903,
      "lon": -1.5099726
    },
    "Bochum, Germany": {
      "city": "Bochum",
      "lat": 51.4818111,
      "lon": 7.2196635
    },
    "Bodø Municipality, Norway": null,
    "Bodø, Norway": {
      "city": "Bodø",
      "lat": 67.2844313,
      "lon": 14.3817503
    },
    "Bogotá, Colombia": {
      "city": "Bogotá",
      "lat": 4.6533817,
      "lon": -74.0836331
    },
    "Bompata, Ghana": {
      "city": "Bompata",
      "lat": 6.634161,
      "lon": -1.059595
    },
    "Bondy, France": {
      "city": "Bondy",
      "lat": 48.9031,
      "lon": 2.48291
    },
    "Bonn, Germany": {
      "city": "Bonn",
      "lat": 50.7352621,
      "lon": 7.1024635
    },
    "Borne, Netherlands": {
      "city": "Borne",
      "lat": 52.3018287,
      "lon": 6.7502395
    },
    "Bou Ismaïl, Algeria": {
      "city": "Bou Ismaïl",
      "lat": 36.642758,
      "lon": 2.6899362
    },
    "Bouaké, Ivory Coast": {
      "city": "Bouaké",
      "lat": 7.6890212,
      "lon": -5.0283552
    },
    "Bourgoin-Jallieu, France": {
      "city": "Bourgoin-Jallieu",
      "lat": 45.5860438,
      "lon": 5.2772265
    },
    "Bourouba, Algeria": {
      "city": "Bourouba",
      "lat": 36.7138232,
      "lon": 3.1125789
    },
    "Boxtel, Netherlands": {
      "city": "Boxtel",
      "lat": 51.5890603,
      "lon": 5.3157954
    },
    "Braga, Portugal": {
      "city": "Braga",
      "lat": 41.5510583,
      "lon": -8.4280045
    },
    "Brampton, Canada": {
      "city": "Brampton",
      "lat": 43.685832,
      "lon": -79.7599366
    },
    "Brandenburg an der Havel, Germany": {
      "city": "Brandenburg an der Havel",
      "lat": 52.4108261,
      "lon": 12.5497933
    },
    "Brandýs nad Labem-Stará Boleslav, Czech Republic": {
      "city": "Brandýs nad Labem-Stará Boleslav",
      "lat": 50.1912412,
      "lon": 14.6649786
    },
    "Breda, Netherlands": {
      "city": "Breda",
      "lat": 51.5887845,
      "lon": 4.7760237
    },
    "Bredene, Belgium": {
      "city": "Bredene",
      "lat": 51.2408491,
      "lon": 2.9647914
    },
    "Bree, Belgium": {
      "city": "Bree",
      "lat": 51.1416131,
      "lon": 5.5974552
    },
    "Breisach, Germany": {
      "city": "Breisach",
      "lat": 48.026872,
      "lon": 7.5894944
    },
    "Bremen, Germany": {
      "city": "Bremen",
      "lat": 53.0758196,
      "lon": 8.8071646
    },
    "Brisbane, Australia": {
      "city": "Brisbane",
      "lat": -27.4689623,
      "lon": 153.0235009
    },
    "Bristol, England": {
      "city": "Bristol",
      "lat": 51.4430162,
      "lon": -2.581661
    },
    "Brooklyn, United States": {
      "city": "Brooklyn",
      "lat": 40.6526006,
      "lon": -73.9497211
    },
    "Bruges, Belgium": {
      "city": "Bruges",
      "lat": 51.2085526,
      "lon": 3.226772
    },
    "Brussels, Belgium": {
      "city": "Brussels",
      "lat": 50.8467372,
      "lon": 4.352493
    },
    "Brussels-Capital Region, Belgium": {
      "city": "Brussels-Capital Region",
      "lat": 50.8416804,
      "lon": 4.3582377
    },
    "Buduburam, Ghana": {
      "city": "Buduburam",
      "lat": 5.5234971,
      "lon": -0.4776318
    },
    "Buenos Aires, Argentina": {
      "city": "Buenos Aires",
      "lat": -34.6095579,
      "lon": -58.3887904
    },
    "Bunia, DR Congo": {
      "city": "Bunia",
      "lat": 1.5620529,
      "lon": 30.2478844
    },
    "Burnaby, Canada": {
      "city": "Burnaby",
      "lat": 49.2433804,
      "lon": -122.972545
    },
    "Busan, South Korea": {
      "city": "Busan",
      "lat": 35.1799528,
      "lon": 129.0752365
    },
    "Bushehr, Iran": {
      "city": "Bushehr",
      "lat": 28.8936645,
      "lon": 51.3204877
    },
    "Bærum Municipality, Norway": null,
    "Béchar, Algeria": {
      "city": "Béchar",
      "lat": 31.385726,
      "lon": -2.0115958
    },
    "Caacupé, Paraguay": {
      "city": "Caacupé",
      "lat": -25.3856888,
      "lon": -57.140477
    },
    "Caaguazú, Paraguay": {
      "city": "Caaguazú",
      "lat": -25.333333,
      "lon": -55.833333
    },
    "Cairo, Egypt": {
      "city": "Cairo",
      "lat": 30.0443879,
      "lon": 31.2357257
    },
    "Calchín, Argentina": {
      "city": "Calchín",
      "lat": -31.666667,
      "lon": -63.2
    },
    "Cali, Colombia": {
      "city": "Cali",
      "lat": 3.4108435,
      "lon": -76.5812127
    },
    "Caloto, Colombia": {
      "city": "Caloto",
      "lat": 3.0336985,
      "lon": -76.4085199
    },
    "Camperdown, Australia": {
      "city": "Camperdown",
      "lat": -33.8896116,
      "lon": 151.1800986
    },
    "Campinas, Brazil": {
      "city": "Campinas",
      "lat": -22.9056391,
      "lon": -47.059564
    },
    "Campo Grande, Brazil": {
      "city": "Campo Grande",
      "lat": -20.4640173,
      "lon": -54.6162947
    },
    "Canberra, Australia": {
      "city": "Canberra",
      "lat": -35.2975906,
      "lon": 149.1012676
    },
    "Canela, Brazil": {
      "city": "Canela",
      "lat": -29.3447033,
      "lon": -50.7604149
    },
    "Canelones, Uruguay": {
      "city": "Canelones",
      "lat": -34.6222482,
      "lon": -55.9903797
    },
    "Cannes, France": {
      "city": "Cannes",
      "lat": 43.5515198,
      "lon": 7.0134418
    },
    "Cape Town, South Africa": {
      "city": "Cape Town",
      "lat": -33.9288301,
      "lon": 18.4172197
    },
    "Cape Verde, Cape Verde": {
      "city": "Cape Verde",
      "lat": 17.0555285,
      "lon": -25.1723049
    },
    "Capelle aan den IJssel, Netherlands": {
      "city": "Capelle aan den IJssel",
      "lat": 51.9312552,
      "lon": 4.5883596
    },
    "Carapeguá, Paraguay": {
      "city": "Carapeguá",
      "lat": -25.767636,
      "lon": -57.2425331
    },
    "Cartagena, Colombia": {
      "city": "Cartagena",
      "lat": 10.4265566,
      "lon": -75.5441671
    },
    "Casablanca, Morocco": {
      "city": "Casablanca",
      "lat": 33.5945144,
      "lon": -7.6200284
    },
    "Castricum, Netherlands": {
      "city": "Castricum",
      "lat": 52.5496739,
      "lon": 4.6696185
    },
    "Catanduva, Brazil": {
      "city": "Catanduva",
      "lat": -21.1331035,
      "lon": -48.9712817
    },
    "Cayenne, France": {
      "city": "Cayenne",
      "lat": 4.9371544,
      "lon": -52.3258736
    },
    "Celaya, Mexico": {
      "city": "Celaya",
      "lat": 20.5222851,
      "lon": -100.8307739
    },
    "Cergy-Pontoise, France": {
      "city": "Cergy-Pontoise",
      "lat": 48.9003625,
      "lon": 2.0697041
    },
    "Cham, Switzerland": {
      "city": "Cham",
      "lat": 47.1823761,
      "lon": 8.4611036
    },
    "Champigny-sur-Marne, France": {
      "city": "Champigny-sur-Marne",
      "lat": 48.8137847,
      "lon": 2.510611
    },
    "Charleroi, Belgium": {
      "city": "Charleroi",
      "lat": 50.4116233,
      "lon": 4.444528
    },
    "Chirakchi, Uzbekistan": {
      "city": "Chirakchi",
      "lat": 39.03341,
      "lon": 66.5758025
    },
    "Chlef, Algeria": {
      "city": "Chlef",
      "lat": 36.1649385,
      "lon": 1.3315687
    },
    "Christchurch, New Zealand": {
      "city": "Christchurch",
      "lat": -43.530955,
      "lon": 172.6364343
    },
    "Chuncheon, South Korea": {
      "city": "Chuncheon",
      "lat": 37.8810569,
      "lon": 127.7297641
    },
    "Châlons-en-Champagne, France": {
      "city": "Châlons-en-Champagne",
      "lat": 48.9566218,
      "lon": 4.3628851
    },
    "Châteaubriant, France": {
      "city": "Châteaubriant",
      "lat": 47.7194057,
      "lon": -1.3757282
    },
    "Châtenay-Malabry, France": {
      "city": "Châtenay-Malabry",
      "lat": 48.7670404,
      "lon": 2.2775316
    },
    "Cihuatlán, Mexico": {
      "city": "Cihuatlán",
      "lat": 19.2632848,
      "lon": -104.6049737
    },
    "Cité Soleil, Haiti": {
      "city": "Cité Soleil",
      "lat": 18.5783693,
      "lon": -72.3355123
    },
    "Ciudad Juárez, Mexico": {
      "city": "Ciudad Juárez",
      "lat": 31.6907979,
      "lon": -106.4253215
    },
    "Ciudad del Este, Paraguay": {
      "city": "Ciudad del Este",
      "lat": -25.5169015,
      "lon": -54.6168645
    },
    "Ciudadela, Argentina": {
      "city": "Ciudadela",
      "lat": -34.6399288,
      "lon": -58.5410771
    },
    "Clichy, France": {
      "city": "Clichy",
      "lat": 48.9026,
      "lon": 2.30551
    },
    "Cockermouth, England": {
      "city": "Cockermouth",
      "lat": 54.6636532,
      "lon": -3.3657782
    },
    "Coimbra, Portugal": {
      "city": "Coimbra",
      "lat": 40.2111931,
      "lon": -8.4294632
    },
    "Colmar, France": {
      "city": "Colmar",
      "lat": 48.0777517,
      "lon": 7.3579641
    },
    "Cologne, Germany": {
      "city": "Cologne",
      "lat": 50.938361,
      "lon": 6.959974
    },
    "Colombes, France": {
      "city": "Colombes",
      "lat": 48.9227298,
      "lon": 2.2543631
    },
    "Colonia del Sacramento, Uruguay": {
      "city": "Colonia del Sacramento",
      "lat": -34.4698592,
      "lon": -57.8433679
    },
    "Colón City, Panama": {
      "city": "Colón City",
      "lat": 9.3553005,
      "lon": -79.8974085
    },
    "Conakry, Guinea": {
      "city": "Conakry",
      "lat": 9.5170602,
      "lon": -13.6998434
    },
    "Concordia, Argentina": {
      "city": "Concordia",
      "lat": -31.3972539,
      "lon": -58.0173305
    },
    "Constantine, Algeria": {
      "city": "Constantine",
      "lat": 36.3641642,
      "lon": 6.6084281
    },
    "Copenhagen, Denmark": {
      "city": "Copenhagen",
      "lat": 55.6867243,
      "lon": 12.5700724
    },
    "Corgi, Iraq": null,
    "Courcouronnes, France": {
      "city": "Courcouronnes",
      "lat": 48.622557,
      "lon": 2.4118939
    },
    "Coyuca de Catalán Municipality, Mexico": null,
    "Creil, France": {
      "city": "Creil",
      "lat": 49.2607914,
      "lon": 2.4733771
    },
    "Croydon, England": {
      "city": "Croydon",
      "lat": 51.3713049,
      "lon": -0.101957
    },
    "Crumlin, Ireland": {
      "city": "Crumlin",
      "lat": 53.3202316,
      "lon": -6.3161673
    },
    "Cuauhtémoc, Mexico": {
      "city": "Cuauhtémoc",
      "lat": 19.4326296,
      "lon": -99.1331785
    },
    "Curaçao, Netherlands": {
      "city": "Curaçao",
      "lat": 12.1176488,
      "lon": -68.9309263
    },
    "Curitiba, Brazil": {
      "city": "Curitiba",
      "lat": -25.4295963,
      "lon": -49.2712724
    },
    "Córdoba, Argentina": {
      "city": "Córdoba",
      "lat": -31.4166867,
      "lon": -64.1834193
    },
    "Cúcuta, Colombia": {
      "city": "Cúcuta",
      "lat": 8.0776187,
      "lon": -72.4689002
    },
    "Daegu, South Korea": {
      "city": "Daegu",
      "lat": 35.8713,
      "lon": 128.6018
    },
    "Daejeon, South Korea": {
      "city": "Daejeon",
      "lat": 36.3497007,
      "lon": 127.3849016
    },
    "Dakar, Senegal": {
      "city": "Dakar",
      "lat": 14.693425,
      "lon": -17.447938
    },
    "Dalry, Scotland": {
      "city": "Dalry",
      "lat": 55.70599,
      "lon": -4.7111352
    },
    "Dammam, Saudi Arabia": {
      "city": "Dammam",
      "lat": 26.4367824,
      "lon": 50.1039991
    },
    "Dandenong, Australia": {
      "city": "Dandenong",
      "lat": -37.990119,
      "lon": 145.2098421
    },
    "Darwin, Australia": {
      "city": "Darwin",
      "lat": -12.46044,
      "lon": 130.8410469
    },
    "Dennilton, South Africa": {
      "city": "Dennilton",
      "lat": -25.2655556,
      "lon": 29.1688889
    },
    "Desouk, Egypt": {
      "city": "Desouk",
      "lat": 31.128233,
      "lon": 30.646198
    },
    "Diouloulou, Senegal": {
      "city": "Diouloulou",
      "lat": 13.0482815,
      "lon": -16.598754
    },
    "Diyala Governorate, Iraq": {
      "city": "Diyala Governorate",
      "lat": 34.0228719,
      "lon": 45.1046224
    },
    "Djibonker, Senegal": null,
    "Doboj, Bosnia and Herzegovina": {
      "city": "Doboj",
      "lat": 44.7324559,
      "lon": 18.0850157
    },
    "Dock Sud, Argentina": {
      "city": "Dock Sud",
      "lat": -34.6522029,
      "lon": -58.3470596
    },
    "Doha, Qatar": {
      "city": "Doha",
      "lat": 25.3108807,
      "lon": 51.5081812
    },
    "Dolní Němčí, Czech Republic": {
      "city": "Dolní Němčí",
      "lat": 48.9684218,
      "lon": 17.5853622
    },
    "Don Benito, Spain": {
      "city": "Don Benito",
      "lat": 38.9540269,
      "lon": -5.8619466
    },
    "Dornbirn, Austria": {
      "city": "Dornbirn",
      "lat": 47.4136351,
      "lon": 9.7423762
    },
    "Douglas, Isle of Man": {
      "city": "Douglas",
      "lat": 54.149774,
      "lon": -4.4779021
    },
    "Drammen, Norway": {
      "city": "Drammen",
      "lat": 59.6964936,
      "lon": 10.175642
    },
    "Drongen, Belgium": {
      "city": "Drongen",
      "lat": 51.0504639,
      "lon": 3.6639157
    },
    "Dumfries, Scotland": {
      "city": "Dumfries",
      "lat": 55.0691831,
      "lon": -3.6106856
    },
    "Durban, South Africa": {
      "city": "Durban",
      "lat": -29.861825,
      "lon": 31.009909
    },
    "Décines-Charpieu, France": {
      "city": "Décines-Charpieu",
      "lat": 45.773606,
      "lon": 4.9633314
    },
    "Düsseldorf, Germany": {
      "city": "Düsseldorf",
      "lat": 51.2254018,
      "lon": 6.7763137
    },
    "Ealing, England": {
      "city": "Ealing",
      "lat": 51.5126553,
      "lon": -0.3051952
    },
    "Edelira, Paraguay": {
      "city": "Edelira",
      "lat": -27.310307,
      "lon": -55.855905
    },
    "Edinburgh, Scotland": {
      "city": "Edinburgh",
      "lat": 55.9533456,
      "lon": -3.1883749
    },
    "Ehime Prefecture, Japan": {
      "city": "Ehime Prefecture",
      "lat": 33.6013646,
      "lon": 132.8185275
    },
    "Eibar, Spain": {
      "city": "Eibar",
      "lat": 43.1842839,
      "lon": -2.4732748
    },
    "Eindhoven, Netherlands": {
      "city": "Eindhoven",
      "lat": 51.4392648,
      "lon": 5.478633
    },
    "Eisenstadt, Austria": {
      "city": "Eisenstadt",
      "lat": 47.8454821,
      "lon": 16.5249288
    },
    "El Cerrito, Colombia": {
      "city": "El Cerrito",
      "lat": 3.6829185,
      "lon": -76.3071487
    },
    "El Mahalla El Kubra, Egypt": {
      "city": "El Mahalla El Kubra",
      "lat": 30.9723517,
      "lon": 31.1683002
    },
    "El Milia, Algeria": {
      "city": "El Milia",
      "lat": 36.7514104,
      "lon": 6.2744614
    },
    "El Molino, Colombia": {
      "city": "El Molino",
      "lat": 10.6284107,
      "lon": -72.8730932
    },
    "El Paso, United States": {
      "city": "El Paso",
      "lat": 31.7601001,
      "lon": -106.4870476
    },
    "Eloy Alfaro Canton, Ecuador": {
      "city": "Eloy Alfaro Canton",
      "lat": -0.1415683,
      "lon": -78.4703334
    },
    "Embalse, Argentina": {
      "city": "Embalse",
      "lat": -32.2067571,
      "lon": -64.4006283
    },
    "Emmen, Netherlands": {
      "city": "Emmen",
      "lat": 52.7528662,
      "lon": 6.9525135
    },
    "Empalme Olmos, Uruguay": {
      "city": "Empalme Olmos",
      "lat": -34.6954579,
      "lon": -55.8948676
    },
    "Ennenda, Switzerland": {
      "city": "Ennenda",
      "lat": 47.033828,
      "lon": 9.0779218
    },
    "Erbil, Iraq": {
      "city": "Erbil",
      "lat": 36.1911744,
      "lon": 44.0094145
    },
    "Eshtehard, Iran": {
      "city": "Eshtehard",
      "lat": 35.7234469,
      "lon": 50.3670608
    },
    "Esmeraldas, Ecuador": {
      "city": "Esmeraldas",
      "lat": 0.7343619,
      "lon": -79.3858867
    },
    "Esplugues de Llobregat, Spain": {
      "city": "Esplugues de Llobregat",
      "lat": 41.3778094,
      "lon": 2.0886257
    },
    "Essen, Germany": {
      "city": "Essen",
      "lat": 51.4582235,
      "lon": 7.0158171
    },
    "Estanyol, Spain": {
      "city": "Estanyol",
      "lat": 41.9411518,
      "lon": 2.7406459
    },
    "Falkenberg, Sweden": {
      "city": "Falkenberg",
      "lat": 56.904894,
      "lon": 12.4912926
    },
    "Famaillá, Argentina": {
      "city": "Famaillá",
      "lat": -27.054364,
      "lon": -65.4020439
    },
    "Faro, Portugal": {
      "city": "Faro",
      "lat": 37.0162944,
      "lon": -7.935182
    },
    "Fetakgomo Local Municipality, South Africa": {
      "city": "Fetakgomo Local Municipality",
      "lat": -24.41531,
      "lon": 29.8550226
    },
    "Fez, Morocco": {
      "city": "Fez",
      "lat": 34.0346534,
      "lon": -5.0161926
    },
    "Fidenza, Italy": {
      "city": "Fidenza",
      "lat": 44.866522,
      "lon": 10.0611939
    },
    "Flekkefjord Municipality, Norway": null,
    "Florida, United States": {
      "city": "Florida",
      "lat": 27.7567667,
      "lon": -81.4639835
    },
    "Foios, Spain": {
      "city": "Foios",
      "lat": 39.5381541,
      "lon": -0.3561396
    },
    "Fort Lauderdale, United States": {
      "city": "Fort Lauderdale",
      "lat": 26.1223084,
      "lon": -80.1433786
    },
    "Frankfurt, Germany": {
      "city": "Frankfurt",
      "lat": 50.1106444,
      "lon": 8.6820917
    },
    "Freetown, Sierra Leone": {
      "city": "Freetown",
      "lat": 8.479004,
      "lon": -13.26795
    },
    "Fresno, United States": {
      "city": "Fresno",
      "lat": 36.7394421,
      "lon": -119.78483
    },
    "Fribourg, Switzerland": {
      "city": "Fribourg",
      "lat": 46.6789116,
      "lon": 7.1027113
    },
    "Fuerte Apache, Argentina": {
      "city": "Fuerte Apache",
      "lat": -26.8645898,
      "lon": -60.2290421
    },
    "Fukuoka Prefecture, Japan": {
      "city": "Fukuoka Prefecture",
      "lat": 33.6251241,
      "lon": 130.6180016
    },
    "Funchal, Portugal": {
      "city": "Funchal",
      "lat": 32.6496497,
      "lon": -16.9086783
    },
    "Gama, Brazil": {
      "city": "Gama",
      "lat": -16.0170857,
      "lon": -48.0653054
    },
    "Geldrop, Netherlands": {
      "city": "Geldrop",
      "lat": 51.4226684,
      "lon": 5.5607546
    },
    "Gelsenkirchen, Germany": {
      "city": "Gelsenkirchen",
      "lat": 51.5110321,
      "lon": 7.0960124
    },
    "General San Martín, Argentina": {
      "city": "General San Martín",
      "lat": -34.5950235,
      "lon": -58.3778987
    },
    "Geneva, Switzerland": {
      "city": "Geneva",
      "lat": 46.2017559,
      "lon": 6.1466014
    },
    "Gifu Prefecture, Japan": {
      "city": "Gifu Prefecture",
      "lat": 35.7867449,
      "lon": 137.0460777
    },
    "Gimje, South Korea": {
      "city": "Gimje",
      "lat": 35.803815,
      "lon": 126.880557
    },
    "Gimpo, South Korea": {
      "city": "Gimpo",
      "lat": 37.6155683,
      "lon": 126.7157798
    },
    "Giza, Egypt": {
      "city": "Giza",
      "lat": 29.9870753,
      "lon": 31.2118063
    },
    "Glasgow, Scotland": {
      "city": "Glasgow",
      "lat": 55.861155,
      "lon": -4.2501687
    },
    "Gold Coast, Australia": {
      "city": "Gold Coast",
      "lat": -28.0023731,
      "lon": 153.4145987
    },
    "Gonbad-e Kavus, Iran": {
      "city": "Gonbad-e Kavus",
      "lat": 37.2492965,
      "lon": 55.1659018
    },
    "Gothenburg, Sweden": {
      "city": "Gothenburg",
      "lat": 57.7072326,
      "lon": 11.9670171
    },
    "Gqeberha, South Africa": {
      "city": "Gqeberha",
      "lat": -33.9618598,
      "lon": 25.6186731
    },
    "Grand-Béréby, Ivory Coast": {
      "city": "Grand-Béréby",
      "lat": 4.6507586,
      "lon": -6.9247355
    },
    "Grand-Goâve, Haiti": {
      "city": "Grand-Goâve",
      "lat": 18.4282512,
      "lon": -72.7681957
    },
    "Graz, Austria": {
      "city": "Graz",
      "lat": 47.0708678,
      "lon": 15.4382786
    },
    "Greenfield Park, Canada": {
      "city": "Greenfield Park",
      "lat": 45.4926624,
      "lon": -73.4870499
    },
    "Greenwich, England": {
      "city": "Greenwich",
      "lat": 51.4820845,
      "lon": -0.0045417
    },
    "Grenchen, Switzerland": {
      "city": "Grenchen",
      "lat": 47.1911495,
      "lon": 7.3967199
    },
    "Grimbergen, Belgium": {
      "city": "Grimbergen",
      "lat": 50.9457843,
      "lon": 4.3890967
    },
    "Grimstad, Norway": {
      "city": "Grimstad",
      "lat": 58.2839967,
      "lon": 8.7128291
    },
    "Groningen, Netherlands": {
      "city": "Groningen",
      "lat": 53.2190652,
      "lon": 6.5680077
    },
    "Guachené, Colombia": {
      "city": "Guachené",
      "lat": 3.1323331,
      "lon": -76.3916018
    },
    "Guadalajara, Mexico": {
      "city": "Guadalajara",
      "lat": 20.6720375,
      "lon": -103.338396
    },
    "Gualeguay, Argentina": {
      "city": "Gualeguay",
      "lat": -33.1504259,
      "lon": -59.3106789
    },
    "Guarulhos, Brazil": {
      "city": "Guarulhos",
      "lat": -23.4675941,
      "lon": -46.5277704
    },
    "Guayaquil, Ecuador": {
      "city": "Guayaquil",
      "lat": -2.1900572,
      "lon": -79.8868669
    },
    "Guédiawaye, Senegal": {
      "city": "Guédiawaye",
      "lat": 14.7771207,
      "lon": -17.390071
    },
    "Haarlem, Netherlands": {
      "city": "Haarlem",
      "lat": 52.3837281,
      "lon": 4.6435679
    },
    "Halden, Norway": {
      "city": "Halden",
      "lat": 59.0680555,
      "lon": 11.537191
    },
    "Halesowen, England": {
      "city": "Halesowen",
      "lat": 52.4492074,
      "lon": -2.0514646
    },
    "Halle, Belgium": {
      "city": "Halle",
      "lat": 50.7360524,
      "lon": 4.2374349
    },
    "Halmstad, Sweden": {
      "city": "Halmstad",
      "lat": 56.6739826,
      "lon": 12.8574827
    },
    "Hamamatsu, Japan": {
      "city": "Hamamatsu",
      "lat": 34.7109786,
      "lon": 137.7259431
    },
    "Hamburg, Germany": {
      "city": "Hamburg",
      "lat": 53.5501721,
      "lon": 10.0013165
    },
    "Hamilton, New Zealand": {
      "city": "Hamilton",
      "lat": -37.7878809,
      "lon": 175.281788
    },
    "Hamilton, Scotland": {
      "city": "Hamilton",
      "lat": 55.7759095,
      "lon": -4.033442
    },
    "Hamm, Germany": {
      "city": "Hamm",
      "lat": 50.0165178,
      "lon": 6.4184628
    },
    "Hammerfest, Norway": {
      "city": "Hammerfest",
      "lat": 70.6413392,
      "lon": 23.8360801
    },
    "Hanover, Germany": {
      "city": "Hanover",
      "lat": 52.3744779,
      "lon": 9.7385532
    },
    "Hareid, Norway": {
      "city": "Hareid",
      "lat": 62.3598311,
      "lon": 6.0305106
    },
    "Haro, Spain": {
      "city": "Haro",
      "lat": 42.5768922,
      "lon": -2.8466768
    },
    "Harold Wood, England": {
      "city": "Harold Wood",
      "lat": 51.5936326,
      "lon": 0.2310497
    },
    "Havlíčkův Brod, Czech Republic": {
      "city": "Havlíčkův Brod",
      "lat": 49.606942,
      "lon": 15.5795748
    },
    "Hawija, Iraq": {
      "city": "Hawija",
      "lat": 35.3233218,
      "lon": 43.7824093
    },
    "Hayama, Japan": {
      "city": "Hayama",
      "lat": 35.2719497,
      "lon": 139.5860744
    },
    "Heeswijk-Dinther, Netherlands": {
      "city": "Heeswijk-Dinther",
      "lat": 51.6493848,
      "lon": 5.4739859
    },
    "Hellmonsödt, Austria": {
      "city": "Hellmonsödt",
      "lat": 48.4317006,
      "lon": 14.3000344
    },
    "Helmond, Netherlands": {
      "city": "Helmond",
      "lat": 51.4736023,
      "lon": 5.6670321
    },
    "Helwan, Egypt": {
      "city": "Helwan",
      "lat": 29.8500001,
      "lon": 31.333333
    },
    "Hermosillo, Mexico": {
      "city": "Hermosillo",
      "lat": 29.0948207,
      "lon": -110.9692202
    },
    "Heroica Cárdenas, Mexico": {
      "city": "Heroica Cárdenas",
      "lat": 17.9886831,
      "lon": -93.3767428
    },
    "Hershey, United States": {
      "city": "Hershey",
      "lat": 40.2850285,
      "lon": -76.6534662
    },
    "Hluhluwe, South Africa": {
      "city": "Hluhluwe",
      "lat": -28.0175,
      "lon": 32.269167
    },
    "Hoboken, Belgium": {
      "city": "Hoboken",
      "lat": 51.1794946,
      "lon": 4.3617847
    },
    "Hoorn, Netherlands": {
      "city": "Hoorn",
      "lat": 52.653272,
      "lon": 5.0735802
    },
    "Horn, Austria": {
      "city": "Horn",
      "lat": 48.6636596,
      "lon": 15.6563147
    },
    "Hradec Králové, Czech Republic": {
      "city": "Hradec Králové",
      "lat": 50.2092113,
      "lon": 15.8327512
    },
    "Huizen, Netherlands": {
      "city": "Huizen",
      "lat": 52.2958122,
      "lon": 5.2567209
    },
    "Hwaseong, South Korea": {
      "city": "Hwaseong",
      "lat": 37.1994653,
      "lon": 126.8312632
    },
    "Hyllie, Sweden": {
      "city": "Hyllie",
      "lat": 55.5627474,
      "lon": 12.9758659
    },
    "Hägerstens församling, Sweden": null,
    "Ibarra, Ecuador": {
      "city": "Ibarra",
      "lat": 0.5159369,
      "lon": -78.1329448
    },
    "Imotski, Croatia": {
      "city": "Imotski",
      "lat": 43.4471115,
      "lon": 17.2179703
    },
    "Incheon, South Korea": {
      "city": "Incheon",
      "lat": 37.456,
      "lon": 126.7052
    },
    "Inverness, Scotland": {
      "city": "Inverness",
      "lat": 57.4790124,
      "lon": -4.225739
    },
    "Irbid, Jordan": {
      "city": "Irbid",
      "lat": 32.4010093,
      "lon": 35.5607928
    },
    "Irvine, Scotland": {
      "city": "Irvine",
      "lat": 55.6131309,
      "lon": -4.6696399
    },
    "Ismailia, Egypt": {
      "city": "Ismailia",
      "lat": 30.6043775,
      "lon": 32.2770825
    },
    "Istmina, Colombia": {
      "city": "Istmina",
      "lat": 5.1593099,
      "lon": -76.685528
    },
    "Itagüí, Colombia": {
      "city": "Itagüí",
      "lat": 6.1724352,
      "lon": -75.6093254
    },
    "Itapitanga, Brazil": {
      "city": "Itapitanga",
      "lat": -14.4232006,
      "lon": -39.5649322
    },
    "Ivančice, Czech Republic": {
      "city": "Ivančice",
      "lat": 49.1015881,
      "lon": 16.3776051
    },
    "Ivry-sur-Seine, France": {
      "city": "Ivry-sur-Seine",
      "lat": 48.8122302,
      "lon": 2.3872525
    },
    "Izumi, Japan": {
      "city": "Izumi",
      "lat": 34.4831932,
      "lon": 135.4232139
    },
    "Jarkurghon, Uzbekistan": null,
    "Jazan, Saudi Arabia": {
      "city": "Jazan",
      "lat": 17.333333,
      "lon": 42.666667
    },
    "Jeddah, Saudi Arabia": {
      "city": "Jeddah",
      "lat": 21.5504432,
      "lon": 39.1742363
    },
    "Jeonju, South Korea": {
      "city": "Jeonju",
      "lat": 35.8237631,
      "lon": 127.1472805
    },
    "Jesenice, Slovenia": {
      "city": "Jesenice",
      "lat": 46.4459152,
      "lon": 14.0663103
    },
    "Jizzakh, Uzbekistan": {
      "city": "Jizzakh",
      "lat": 40.1331797,
      "lon": 67.8234081
    },
    "Johannesburg, South Africa": {
      "city": "Johannesburg",
      "lat": -26.205,
      "lon": 28.049722
    },
    "João Pessoa, Brazil": {
      "city": "João Pessoa",
      "lat": -7.1215981,
      "lon": -34.882028
    },
    "Judenburg, Austria": {
      "city": "Judenburg",
      "lat": 47.1694082,
      "lon": 14.6601079
    },
    "Jönköping, Sweden": {
      "city": "Jönköping",
      "lat": 57.7825634,
      "lon": 14.165719
    },
    "Kafr el-Dawwar, Egypt": null,
    "Kafr el-Sheikh, Egypt": {
      "city": "Kafr el-Sheikh",
      "lat": 31.3814765,
      "lon": 30.8513566
    },
    "Kakegawa, Japan": {
      "city": "Kakegawa",
      "lat": 34.7688351,
      "lon": 137.9986433
    },
    "Kakuma, Kenya": {
      "city": "Kakuma",
      "lat": 3.706286,
      "lon": 34.873489
    },
    "Kanagawa Prefecture, Japan": {
      "city": "Kanagawa Prefecture",
      "lat": 35.4342935,
      "lon": 139.374753
    },
    "Kananga, DR Congo": {
      "city": "Kananga",
      "lat": -5.8951725,
      "lon": 22.408589
    },
    "Karabük, Turkey": {
      "city": "Karabük",
      "lat": 41.1110349,
      "lon": 32.6193901
    },
    "Karamürsel district, Turkey": null,
    "Karlovy Vary, Czech Republic": {
      "city": "Karlovy Vary",
      "lat": 50.2306216,
      "lon": 12.8701437
    },
    "Karlsruhe, Germany": {
      "city": "Karlsruhe",
      "lat": 49.0068705,
      "lon": 8.4034195
    },
    "Kartal, Turkey": {
      "city": "Kartal",
      "lat": 40.8885036,
      "lon": 29.18589
    },
    "Kashan, Iran": {
      "city": "Kashan",
      "lat": 33.9876533,
      "lon": 51.4428856
    },
    "Kawasaki, Japan": {
      "city": "Kawasaki",
      "lat": 35.5306639,
      "lon": 139.7037668
    },
    "Kempton Park, South Africa": {
      "city": "Kempton Park",
      "lat": -26.0964372,
      "lon": 28.2336325
    },
    "Kerkrade, Netherlands": {
      "city": "Kerkrade",
      "lat": 50.8749089,
      "lon": 6.0593853
    },
    "Khartoum, Sudan": {
      "city": "Khartoum",
      "lat": 15.5635972,
      "lon": 32.5349123
    },
    "Khobar, Saudi Arabia": {
      "city": "Khobar",
      "lat": 26.3039999,
      "lon": 50.1960237
    },
    "Kigoma, Tanzania": {
      "city": "Kigoma",
      "lat": -4.5126571,
      "lon": 30.0050533
    },
    "Kilmarnock, Scotland": {
      "city": "Kilmarnock",
      "lat": 55.6100589,
      "lon": -4.4964652
    },
    "Kingston upon Thames, England": {
      "city": "Kingston upon Thames",
      "lat": 51.4096275,
      "lon": -0.3062621
    },
    "Kinshasa, DR Congo": {
      "city": "Kinshasa",
      "lat": -4.3196982,
      "lon": 15.3424196
    },
    "Kirchbichl, Austria": {
      "city": "Kirchbichl",
      "lat": 47.5111617,
      "lon": 12.0859208
    },
    "Kirkuk, Iraq": {
      "city": "Kirkuk",
      "lat": 35.4719308,
      "lon": 44.3953896
    },
    "Kirriemuir, Scotland": {
      "city": "Kirriemuir",
      "lat": 56.6731057,
      "lon": -3.0043927
    },
    "Kisangani, DR Congo": {
      "city": "Kisangani",
      "lat": 0.5184021,
      "lon": 25.2057292
    },
    "Kista, Sweden": {
      "city": "Kista",
      "lat": 59.4031236,
      "lon": 17.9424221
    },
    "Klatovy, Czech Republic": {
      "city": "Klatovy",
      "lat": 49.3951183,
      "lon": 13.2935954
    },
    "Knin, Croatia": {
      "city": "Knin",
      "lat": 44.04085,
      "lon": 16.199433
    },
    "Knokke-Heist, Belgium": {
      "city": "Knokke-Heist",
      "lat": 51.3433866,
      "lon": 3.2884738
    },
    "Kokand, Uzbekistan": {
      "city": "Kokand",
      "lat": 40.5408463,
      "lon": 70.9473889
    },
    "Kongsvinger Municipality, Norway": null,
    "Koppigen, Switzerland": {
      "city": "Koppigen",
      "lat": 47.1318304,
      "lon": 7.601523
    },
    "Koson, Uzbekistan": {
      "city": "Koson",
      "lat": 39.0406833,
      "lon": 65.5858969
    },
    "Kosonsoy, Uzbekistan": {
      "city": "Kosonsoy",
      "lat": 41.2528658,
      "lon": 71.5446327
    },
    "Koumassi, Ivory Coast": {
      "city": "Koumassi",
      "lat": 5.2927045,
      "lon": -3.9585801
    },
    "Krumbach, Germany": {
      "city": "Krumbach",
      "lat": 48.2430587,
      "lon": 10.3631004
    },
    "Kuchl, Austria": {
      "city": "Kuchl",
      "lat": 47.6258369,
      "lon": 13.1451024
    },
    "Kumamoto, Japan": {
      "city": "Kumamoto",
      "lat": 32.6450475,
      "lon": 130.6341345
    },
    "Kumasi, Ghana": {
      "city": "Kumasi",
      "lat": 6.6985605,
      "lon": -1.6233086
    },
    "KwaMashu, South Africa": {
      "city": "KwaMashu",
      "lat": -29.741389,
      "lon": 30.962222
    },
    "Küçükçekmece, Turkey": {
      "city": "Küçükçekmece",
      "lat": 40.9918737,
      "lon": 28.7711956
    },
    "La Jagua de Ibirico, Colombia": {
      "city": "La Jagua de Ibirico",
      "lat": 9.5613975,
      "lon": -73.3328147
    },
    "La Plata, Argentina": {
      "city": "La Plata",
      "lat": -34.9206797,
      "lon": -57.9537638
    },
    "La Roche-sur-Yon, France": {
      "city": "La Roche-sur-Yon",
      "lat": 46.6705578,
      "lon": -1.4269591
    },
    "La Victoria, Colombia": {
      "city": "La Victoria",
      "lat": 5.5152589,
      "lon": -74.2354892
    },
    "Ladysmith, South Africa": {
      "city": "Ladysmith",
      "lat": -28.5587291,
      "lon": 29.7825044
    },
    "Lagny-sur-Marne, France": {
      "city": "Lagny-sur-Marne",
      "lat": 48.8773018,
      "lon": 2.7056056
    },
    "Lake Grove, United States": {
      "city": "Lake Grove",
      "lat": 40.8528761,
      "lon": -73.1151102
    },
    "Lancaster, England": {
      "city": "Lancaster",
      "lat": 54.0488219,
      "lon": -2.8013499
    },
    "Landsberg am Lech, Germany": {
      "city": "Landsberg am Lech",
      "lat": 48.0497474,
      "lon": 10.8768728
    },
    "Landshut, Germany": {
      "city": "Landshut",
      "lat": 48.536217,
      "lon": 12.1516551
    },
    "Langhus, Norway": {
      "city": "Langhus",
      "lat": 59.7496731,
      "lon": 10.836611
    },
    "Langley, Canada": {
      "city": "Langley",
      "lat": 49.1039289,
      "lon": -122.657047
    },
    "Las Palmas de Gran Canaria, Spain": {
      "city": "Las Palmas de Gran Canaria",
      "lat": 28.1288694,
      "lon": -15.4349015
    },
    "Le Mans, France": {
      "city": "Le Mans",
      "lat": 48.0073849,
      "lon": 0.1967849
    },
    "Leamington, Canada": {
      "city": "Leamington",
      "lat": 42.0531385,
      "lon": -82.5997722
    },
    "Leeds, England": {
      "city": "Leeds",
      "lat": 53.7974185,
      "lon": -1.5437941
    },
    "Leicester, England": {
      "city": "Leicester",
      "lat": 52.6362,
      "lon": -1.1331969
    },
    "Leiderdorp, Netherlands": {
      "city": "Leiderdorp",
      "lat": 52.1617952,
      "lon": 4.5340923
    },
    "Leuchars, Scotland": {
      "city": "Leuchars",
      "lat": 56.374796,
      "lon": -2.8938545
    },
    "Leuven, Belgium": {
      "city": "Leuven",
      "lat": 50.879202,
      "lon": 4.7011675
    },
    "Liberec, Czech Republic": {
      "city": "Liberec",
      "lat": 50.7702648,
      "lon": 15.0583947
    },
    "Lilienfeld, Austria": {
      "city": "Lilienfeld",
      "lat": 48.0149797,
      "lon": 15.5966191
    },
    "Lille, France": {
      "city": "Lille",
      "lat": 50.6365654,
      "lon": 3.0635282
    },
    "Linz, Austria": {
      "city": "Linz",
      "lat": 48.3059078,
      "lon": 14.286198
    },
    "Linzolo, Congo": {
      "city": "Linzolo",
      "lat": -4.413723,
      "lon": 15.1068663
    },
    "Lisbon, Portugal": {
      "city": "Lisbon",
      "lat": 38.7077507,
      "lon": -9.1365919
    },
    "Little Elm, United States": {
      "city": "Little Elm",
      "lat": 33.1626194,
      "lon": -96.9375051
    },
    "Liverpool, England": {
      "city": "Liverpool",
      "lat": 53.3933411,
      "lon": -2.9166389
    },
    "Livno, Bosnia and Herzegovina": {
      "city": "Livno",
      "lat": 43.8259136,
      "lon": 17.0042416
    },
    "Liège, Belgium": {
      "city": "Liège",
      "lat": 50.6450944,
      "lon": 5.5736112
    },
    "Ljubljana, Slovenia": {
      "city": "Ljubljana",
      "lat": 46.0500268,
      "lon": 14.5069289
    },
    "Ljubuški, Bosnia and Herzegovina": {
      "city": "Ljubuški",
      "lat": 43.1963022,
      "lon": 17.5447857
    },
    "Logoualé, Ivory Coast": {
      "city": "Logoualé",
      "lat": 7.1074292,
      "lon": -7.5511449
    },
    "London Borough of Newham, England": {
      "city": "London Borough of Newham",
      "lat": 51.5300157,
      "lon": 0.0293091
    },
    "London, England": {
      "city": "London",
      "lat": 51.5074456,
      "lon": -0.1277653
    },
    "Longueuil, Canada": {
      "city": "Longueuil",
      "lat": 45.521906,
      "lon": -73.4644578
    },
    "Los Angeles, United States": {
      "city": "Los Angeles",
      "lat": 34.0536909,
      "lon": -118.242766
    },
    "Los Palacios y Villafranca, Spain": {
      "city": "Los Palacios y Villafranca",
      "lat": 37.1582119,
      "lon": -5.9244567
    },
    "Lucerne, Switzerland": {
      "city": "Lucerne",
      "lat": 47.052144,
      "lon": 8.3058123
    },
    "Ludwigshafen, Germany": {
      "city": "Ludwigshafen",
      "lat": 49.4704113,
      "lon": 8.4381568
    },
    "Lund, Sweden": {
      "city": "Lund",
      "lat": 55.7029296,
      "lon": 13.1929449
    },
    "Lunel, France": {
      "city": "Lunel",
      "lat": 43.6745265,
      "lon": 4.1348062
    },
    "Lyon, France": {
      "city": "Lyon",
      "lat": 45.7578137,
      "lon": 4.8320114
    },
    "M'Bour, Senegal": {
      "city": "M'Bour",
      "lat": 14.4207396,
      "lon": -16.971484
    },
    "M'Sila, Algeria": {
      "city": "M'Sila",
      "lat": 35.1300205,
      "lon": 4.2003107
    },
    "Maasmechelen, Belgium": {
      "city": "Maasmechelen",
      "lat": 50.9634179,
      "lon": 5.6960212
    },
    "Macclesfield, England": {
      "city": "Macclesfield",
      "lat": 53.2606635,
      "lon": -2.1255158
    },
    "Machala, Ecuador": {
      "city": "Machala",
      "lat": -3.3148937,
      "lon": -79.9512804
    },
    "Madrid, Spain": {
      "city": "Madrid",
      "lat": 40.416782,
      "lon": -3.703507
    },
    "Magüí Payán, Colombia": {
      "city": "Magüí Payán",
      "lat": 1.7665774,
      "lon": -78.1835713
    },
    "Mahshahr, Iran": {
      "city": "Mahshahr",
      "lat": 35.714184,
      "lon": 51.4203233
    },
    "Maia, Portugal": {
      "city": "Maia",
      "lat": 41.2373456,
      "lon": -8.6299982
    },
    "Mainz, Germany": {
      "city": "Mainz",
      "lat": 49.9995205,
      "lon": 8.2736253
    },
    "Malmö, Sweden": {
      "city": "Malmö",
      "lat": 55.6052931,
      "lon": 13.0001566
    },
    "Manchester, England": {
      "city": "Manchester",
      "lat": 53.4424618,
      "lon": -2.2324547
    },
    "Mannheim, Germany": {
      "city": "Mannheim",
      "lat": 49.4892913,
      "lon": 8.4673098
    },
    "Mansoura, Egypt": {
      "city": "Mansoura",
      "lat": 31.0407773,
      "lon": 31.3581295
    },
    "Manta, Ecuador": {
      "city": "Manta",
      "lat": -1.0320063,
      "lon": -80.8169311
    },
    "Mantes-la-Jolie, France": {
      "city": "Mantes-la-Jolie",
      "lat": 48.9891971,
      "lon": 1.7140683
    },
    "Mar del Plata, Argentina": {
      "city": "Mar del Plata",
      "lat": -37.9976168,
      "lon": -57.5482079
    },
    "Maracaná, Paraguay": {
      "city": "Maracaná",
      "lat": -24.1899734,
      "lon": -56.1197791
    },
    "Marseille, France": {
      "city": "Marseille",
      "lat": 43.2963986,
      "lon": 5.3777888
    },
    "Martigues, France": {
      "city": "Martigues",
      "lat": 43.4057279,
      "lon": 5.0548176
    },
    "Martorell, Spain": {
      "city": "Martorell",
      "lat": 41.4743886,
      "lon": 1.9307159
    },
    "Maysan Governorate, Iraq": {
      "city": "Maysan Governorate",
      "lat": 32.0182542,
      "lon": 47.0695957
    },
    "Mbuji-Mayi, DR Congo": {
      "city": "Mbuji-Mayi",
      "lat": -6.1258942,
      "lon": 23.5998111
    },
    "Meaux, France": {
      "city": "Meaux",
      "lat": 48.9582708,
      "lon": 2.8773541
    },
    "Meckhe, Senegal": {
      "city": "Meckhe",
      "lat": 15.112955,
      "lon": -16.631121
    },
    "Medellín, Colombia": {
      "city": "Medellín",
      "lat": 6.2697324,
      "lon": -75.6025597
    },
    "Medenine, Tunisia": {
      "city": "Medenine",
      "lat": 32.9819987,
      "lon": 11.2870254
    },
    "Medford, United States": {
      "city": "Medford",
      "lat": 42.4184296,
      "lon": -71.1061639
    },
    "Media, United States": {
      "city": "Media",
      "lat": 39.9167783,
      "lon": -75.387693
    },
    "Medina, Saudi Arabia": {
      "city": "Medina",
      "lat": 24.471153,
      "lon": 39.6111216
    },
    "Melbourne, Australia": {
      "city": "Melbourne",
      "lat": -37.8142454,
      "lon": 144.9631732
    },
    "Melilla, Spain": {
      "city": "Melilla",
      "lat": 35.2918698,
      "lon": -2.9409026
    },
    "Meram district, Turkey": null,
    "Mexico City, Mexico": {
      "city": "Mexico City",
      "lat": 19.3207722,
      "lon": -99.1514678
    },
    "Meziboří, Czech Republic": {
      "city": "Meziboří",
      "lat": 50.6203084,
      "lon": 13.6071384
    },
    "Mie Prefecture, Japan": {
      "city": "Mie Prefecture",
      "lat": 34.7339685,
      "lon": 136.5154489
    },
    "Milton Keynes, England": {
      "city": "Milton Keynes",
      "lat": 52.0406502,
      "lon": -0.7594092
    },
    "Mindelo, Cape Verde": {
      "city": "Mindelo",
      "lat": 16.8873057,
      "lon": -24.9864064
    },
    "Minya, Egypt": {
      "city": "Minya",
      "lat": 28.2125404,
      "lon": 30.9123741
    },
    "Mitcham, England": {
      "city": "Mitcham",
      "lat": 51.4058006,
      "lon": -0.1640787
    },
    "Mito, Japan": {
      "city": "Mito",
      "lat": 36.3659174,
      "lon": 140.4731743
    },
    "Miyamae-ku, Japan": {
      "city": "Miyamae-ku",
      "lat": 35.5891669,
      "lon": 139.5786951
    },
    "Mogadishu, Somalia": {
      "city": "Mogadishu",
      "lat": 2.0349312,
      "lon": 45.3419183
    },
    "Mogi das Cruzes, Brazil": {
      "city": "Mogi das Cruzes",
      "lat": -23.5234284,
      "lon": -46.1926671
    },
    "Mohammedia, Morocco": {
      "city": "Mohammedia",
      "lat": 33.6958383,
      "lon": -7.3893292
    },
    "Molde Municipality, Norway": null,
    "Monterrey, Mexico": {
      "city": "Monterrey",
      "lat": 25.6802019,
      "lon": -100.315258
    },
    "Montevideo, Uruguay": {
      "city": "Montevideo",
      "lat": -34.9058916,
      "lon": -56.1913095
    },
    "Montfermeil, France": {
      "city": "Montfermeil",
      "lat": 48.8992679,
      "lon": 2.5660399
    },
    "Montivilliers, France": {
      "city": "Montivilliers",
      "lat": 49.5457966,
      "lon": 0.1920827
    },
    "Montpellier, France": {
      "city": "Montpellier",
      "lat": 43.6112422,
      "lon": 3.8767337
    },
    "Montreal, Canada": {
      "city": "Montreal",
      "lat": 45.5031824,
      "lon": -73.5698065
    },
    "Montreuil, France": {
      "city": "Montreuil",
      "lat": 50.4638918,
      "lon": 1.7631125
    },
    "Monufia Governorate, Egypt": {
      "city": "Monufia Governorate",
      "lat": 30.4370098,
      "lon": 30.7466852
    },
    "Moonee Ponds, Australia": {
      "city": "Moonee Ponds",
      "lat": -37.765935,
      "lon": 144.9192614
    },
    "Moordrecht, Netherlands": {
      "city": "Moordrecht",
      "lat": 51.9865065,
      "lon": 4.6698314
    },
    "Mostar, Bosnia and Herzegovina": {
      "city": "Mostar",
      "lat": 43.3435855,
      "lon": 17.8076584
    },
    "Motala, Sweden": {
      "city": "Motala",
      "lat": 58.5420395,
      "lon": 15.041261
    },
    "Mozelos, Portugal": {
      "city": "Mozelos",
      "lat": 40.9995263,
      "lon": -8.5579985
    },
    "Munich, Germany": {
      "city": "Munich",
      "lat": 48.1371079,
      "lon": 11.5753822
    },
    "Murphy, Argentina": {
      "city": "Murphy",
      "lat": -33.6423626,
      "lon": -61.8584359
    },
    "Musina, South Africa": {
      "city": "Musina",
      "lat": -22.3453519,
      "lon": 30.0268526
    },
    "Málaga, Spain": {
      "city": "Málaga",
      "lat": 36.7647913,
      "lon": -4.4422005
    },
    "Mülheim an der Ruhr, Germany": {
      "city": "Mülheim an der Ruhr",
      "lat": 51.4272925,
      "lon": 6.8829192
    },
    "Mělník, Czech Republic": {
      "city": "Mělník",
      "lat": 50.3520785,
      "lon": 14.4748281
    },
    "Nagrig, Egypt": null,
    "Najaf, Iraq": {
      "city": "Najaf",
      "lat": 32.0010227,
      "lon": 44.3299926
    },
    "Nampula, Mozambique": {
      "city": "Nampula",
      "lat": -14.966969,
      "lon": 39.2707752
    },
    "Namsos, Norway": {
      "city": "Namsos",
      "lat": 64.4666372,
      "lon": 11.3345047
    },
    "Namyangju, South Korea": {
      "city": "Namyangju",
      "lat": 37.6359398,
      "lon": 127.2165051
    },
    "Nancy, France": {
      "city": "Nancy",
      "lat": 48.6937223,
      "lon": 6.1834097
    },
    "Nantes, France": {
      "city": "Nantes",
      "lat": 47.2186371,
      "lon": -1.5541362
    },
    "Naperville, United States": {
      "city": "Naperville",
      "lat": 41.7728699,
      "lon": -88.1479278
    },
    "Naples, Italy": {
      "city": "Naples",
      "lat": 40.8358846,
      "lon": 14.2487679
    },
    "Navoiy, Uzbekistan": {
      "city": "Navoiy",
      "lat": 42.0,
      "lon": 64.0
    },
    "Navojoa, Mexico": {
      "city": "Navojoa",
      "lat": 27.0721872,
      "lon": -109.4438227
    },
    "Našice, Croatia": {
      "city": "Našice",
      "lat": 45.4907759,
      "lon": 18.0938075
    },
    "Ndangane, Senegal": {
      "city": "Ndangane",
      "lat": 14.0763643,
      "lon": -15.9246624
    },
    "Neerpelt, Belgium": {
      "city": "Neerpelt",
      "lat": 51.2292367,
      "lon": 5.442759
    },
    "Neftenbach, Switzerland": {
      "city": "Neftenbach",
      "lat": 47.528176,
      "lon": 8.6680365
    },
    "Nemours, France": {
      "city": "Nemours",
      "lat": 48.268026,
      "lon": 2.6953079
    },
    "Neunkirchen, Austria": {
      "city": "Neunkirchen",
      "lat": 47.7221147,
      "lon": 16.081602
    },
    "New Egypt, United States": {
      "city": "New Egypt",
      "lat": 40.0654375,
      "lon": -74.5226681
    },
    "New York City, United States": {
      "city": "New York City",
      "lat": 40.7127281,
      "lon": -74.0060152
    },
    "Newark, United States": {
      "city": "Newark",
      "lat": 40.735657,
      "lon": -74.1723667
    },
    "Newcastle, Australia": {
      "city": "Newcastle",
      "lat": -32.9192953,
      "lon": 151.7795348
    },
    "Nexø, Denmark": {
      "city": "Nexø",
      "lat": 55.0650145,
      "lon": 15.1307273
    },
    "Nieuwegein, Netherlands": {
      "city": "Nieuwegein",
      "lat": 52.0367152,
      "lon": 5.0836117
    },
    "Nijmegen, Netherlands": {
      "city": "Nijmegen",
      "lat": 51.8425749,
      "lon": 5.8389606
    },
    "Nishapur, Iran": {
      "city": "Nishapur",
      "lat": 36.2105604,
      "lon": 58.7922291
    },
    "Noisy-le-Grand, France": {
      "city": "Noisy-le-Grand",
      "lat": 48.8492238,
      "lon": 2.5524906
    },
    "Norrköping Matteus church parish, Sweden": null,
    "Norrköping, Sweden": {
      "city": "Norrköping",
      "lat": 58.5909124,
      "lon": 16.1903511
    },
    "Northampton, England": {
      "city": "Northampton",
      "lat": 52.2343297,
      "lon": -0.9028043
    },
    "Norwich, England": {
      "city": "Norwich",
      "lat": 52.6285576,
      "lon": 1.2923954
    },
    "Novi Pazar, Serbia": {
      "city": "Novi Pazar",
      "lat": 43.1406913,
      "lon": 20.518057
    },
    "Novo Hamburgo, Brazil": {
      "city": "Novo Hamburgo",
      "lat": -29.6905705,
      "lon": -51.1429035
    },
    "Nueva Palmira, Uruguay": {
      "city": "Nueva Palmira",
      "lat": -33.8710911,
      "lon": -58.4068884
    },
    "Nuevo Berlín, Uruguay": {
      "city": "Nuevo Berlín",
      "lat": -32.9803448,
      "lon": -58.0569456
    },
    "Nuremberg, Germany": {
      "city": "Nuremberg",
      "lat": 49.453872,
      "lon": 11.077298
    },
    "Nyon, Switzerland": {
      "city": "Nyon",
      "lat": 46.3820585,
      "lon": 6.2402791
    },
    "Odumase Krobo, Ghana": {
      "city": "Odumase Krobo",
      "lat": 6.1518553,
      "lon": 0.0189578
    },
    "Olhão, Portugal": {
      "city": "Olhão",
      "lat": 37.0270369,
      "lon": -7.8411287
    },
    "Olmaliq, Uzbekistan": {
      "city": "Olmaliq",
      "lat": 40.845729,
      "lon": 69.6071609
    },
    "Olomouc, Czech Republic": {
      "city": "Olomouc",
      "lat": 49.5940567,
      "lon": 17.251143
    },
    "Oost-Souburg, Netherlands": {
      "city": "Oost-Souburg",
      "lat": 51.4645556,
      "lon": 3.6042063
    },
    "Osaka, Japan": {
      "city": "Osaka",
      "lat": 34.6937569,
      "lon": 135.5014539
    },
    "Osasco, Brazil": {
      "city": "Osasco",
      "lat": -23.5324859,
      "lon": -46.7916801
    },
    "Oslo, Norway": {
      "city": "Oslo",
      "lat": 59.9133301,
      "lon": 10.7389701
    },
    "Osmangazi, Turkey": {
      "city": "Osmangazi",
      "lat": 40.7992416,
      "lon": 29.3801162
    },
    "Ostend, Belgium": {
      "city": "Ostend",
      "lat": 51.2258565,
      "lon": 2.919496
    },
    "Ouagadougou, Burkina Faso": {
      "city": "Ouagadougou",
      "lat": 12.3681873,
      "lon": -1.5270944
    },
    "Ouragahio, Ivory Coast": {
      "city": "Ouragahio",
      "lat": 6.3083585,
      "lon": -5.9312428
    },
    "Overland Park, United States": {
      "city": "Overland Park",
      "lat": 38.9742502,
      "lon": -94.6851702
    },
    "Oviedo, Spain": {
      "city": "Oviedo",
      "lat": 43.3533452,
      "lon": -5.8795096
    },
    "Paderborn, Germany": {
      "city": "Paderborn",
      "lat": 51.7177044,
      "lon": 8.752653
    },
    "Palma, Spain": {
      "city": "Palma",
      "lat": 39.5695818,
      "lon": 2.6500745
    },
    "Palmerston North, New Zealand": {
      "city": "Palmerston North",
      "lat": -40.356317,
      "lon": 175.6112388
    },
    "Pamplona, Spain": {
      "city": "Pamplona",
      "lat": 42.815686,
      "lon": -1.6522353
    },
    "Panama City, Panama": {
      "city": "Panama City",
      "lat": 8.9714493,
      "lon": -79.5341802
    },
    "Pap, Uzbekistan": {
      "city": "Pap",
      "lat": 40.8743693,
      "lon": 71.0970171
    },
    "Paris, France": {
      "city": "Paris",
      "lat": 48.8588897,
      "lon": 2.320041
    },
    "Park Ridge, United States": {
      "city": "Park Ridge",
      "lat": 42.0112329,
      "lon": -87.8406031
    },
    "Parma, Italy": {
      "city": "Parma",
      "lat": 44.6952006,
      "lon": 10.0979869
    },
    "Pereira, Colombia": {
      "city": "Pereira",
      "lat": 4.7854606,
      "lon": -75.788322
    },
    "Perth, Australia": {
      "city": "Perth",
      "lat": -31.9558967,
      "lon": 115.8605784
    },
    "Petit-Goâve, Haiti": {
      "city": "Petit-Goâve",
      "lat": 18.4326935,
      "lon": -72.865384
    },
    "Petite-Rivière-de-l'Artibonite, Haiti": {
      "city": "Petite-Rivière-de-l'Artibonite",
      "lat": 19.1228446,
      "lon": -72.4798459
    },
    "Petrópolis, Brazil": {
      "city": "Petrópolis",
      "lat": -22.5075743,
      "lon": -43.1785356
    },
    "Philadelphia, United States": {
      "city": "Philadelphia",
      "lat": 39.9527237,
      "lon": -75.1635262
    },
    "Pickering, Canada": {
      "city": "Pickering",
      "lat": 43.835765,
      "lon": -79.090576
    },
    "Pico Rivera, United States": {
      "city": "Pico Rivera",
      "lat": 33.9830688,
      "lon": -118.096735
    },
    "Pikine, Senegal": {
      "city": "Pikine",
      "lat": 14.751544,
      "lon": -17.396413
    },
    "Piranshahr Sugar Factory, Iran": null,
    "Plumpton, Australia": {
      "city": "Plumpton",
      "lat": -33.7566667,
      "lon": 150.8427778
    },
    "Plzeň, Czech Republic": {
      "city": "Plzeň",
      "lat": 49.7477415,
      "lon": 13.3775249
    },
    "Pohang, South Korea": {
      "city": "Pohang",
      "lat": 36.0189315,
      "lon": 129.3429384
    },
    "Point Cook, Australia": {
      "city": "Point Cook",
      "lat": -37.9064862,
      "lon": 144.7533059
    },
    "Poissy, France": {
      "city": "Poissy",
      "lat": 48.9274192,
      "lon": 2.0426301
    },
    "Polička, Czech Republic": {
      "city": "Polička",
      "lat": 49.7149137,
      "lon": 16.2653869
    },
    "Polokwane, South Africa": {
      "city": "Polokwane",
      "lat": -23.9058333,
      "lon": 29.4613889
    },
    "Pomigliano d'Arco, Italy": {
      "city": "Pomigliano d'Arco",
      "lat": 40.907912,
      "lon": 14.386233
    },
    "Pontoise, France": {
      "city": "Pontoise",
      "lat": 49.0508845,
      "lon": 2.1008067
    },
    "Port Said, Egypt": {
      "city": "Port Said",
      "lat": 31.263235,
      "lon": 32.305505
    },
    "Port Williams, Canada": {
      "city": "Port Williams",
      "lat": 45.0979991,
      "lon": -64.4100054
    },
    "Port-au-Prince, Haiti": {
      "city": "Port-au-Prince",
      "lat": 18.547327,
      "lon": -72.3395928
    },
    "Porto Alegre, Brazil": {
      "city": "Porto Alegre",
      "lat": -30.0324999,
      "lon": -51.2303767
    },
    "Posušje, Bosnia and Herzegovina": {
      "city": "Posušje",
      "lat": 43.4712288,
      "lon": 17.3271281
    },
    "Prague, Czech Republic": {
      "city": "Prague",
      "lat": 50.0874654,
      "lon": 14.4212535
    },
    "Praia, Cape Verde": {
      "city": "Praia",
      "lat": 14.9162811,
      "lon": -23.5095095
    },
    "Pujato, Argentina": {
      "city": "Pujato",
      "lat": -33.0176021,
      "lon": -61.0430978
    },
    "Pulheim, Germany": {
      "city": "Pulheim",
      "lat": 50.9979888,
      "lon": 6.8025409
    },
    "Punta del Este, Uruguay": {
      "city": "Punta del Este",
      "lat": -34.9632342,
      "lon": -54.9439981
    },
    "Qaem Shahr, Iran": {
      "city": "Qaem Shahr",
      "lat": 36.4636399,
      "lon": 52.8579311
    },
    "Qarshi, Uzbekistan": {
      "city": "Qarshi",
      "lat": 38.839824,
      "lon": 65.7927794
    },
    "Qatif governorate, Saudi Arabia": {
      "city": "Qatif governorate",
      "lat": 26.6078257,
      "lon": 49.9196611
    },
    "Qatif, Saudi Arabia": {
      "city": "Qatif",
      "lat": 26.5586004,
      "lon": 50.0087399
    },
    "Qazvin, Iran": {
      "city": "Qazvin",
      "lat": 36.0156291,
      "lon": 49.8398161
    },
    "Quibdó, Colombia": {
      "city": "Quibdó",
      "lat": 5.6912838,
      "lon": -76.6531337
    },
    "Quito, Ecuador": {
      "city": "Quito",
      "lat": -0.2201641,
      "lon": -78.5123274
    },
    "Racine, United States": {
      "city": "Racine",
      "lat": 42.7313756,
      "lon": -87.7834769
    },
    "Rafael Calzada, Argentina": {
      "city": "Rafael Calzada",
      "lat": -34.7916002,
      "lon": -58.3507175
    },
    "Rafaela, Argentina": {
      "city": "Rafaela",
      "lat": -31.2526923,
      "lon": -61.4916758
    },
    "Redbridge, England": {
      "city": "Redbridge",
      "lat": 51.5763203,
      "lon": 0.0454097
    },
    "Regensburg, Germany": {
      "city": "Regensburg",
      "lat": 49.0195333,
      "lon": 12.0974869
    },
    "Reggiolo, Italy": {
      "city": "Reggiolo",
      "lat": 44.9185339,
      "lon": 10.8042114
    },
    "Rennes, France": {
      "city": "Rennes",
      "lat": 48.1113387,
      "lon": -1.6800198
    },
    "Rheinfelden, Switzerland": {
      "city": "Rheinfelden",
      "lat": 47.5543859,
      "lon": 7.7922905
    },
    "Ribeira Grande, Cape Verde": {
      "city": "Ribeira Grande",
      "lat": 17.1391197,
      "lon": -25.1368741
    },
    "Richmond, United States": {
      "city": "Richmond",
      "lat": 37.5385087,
      "lon": -77.43428
    },
    "Rijeka, Croatia": {
      "city": "Rijeka",
      "lat": 45.3267976,
      "lon": 14.442208
    },
    "Rio Branco, Brazil": {
      "city": "Rio Branco",
      "lat": -9.9765362,
      "lon": -67.8220778
    },
    "Rio de Janeiro, Brazil": {
      "city": "Rio de Janeiro",
      "lat": -22.9110137,
      "lon": -43.2093727
    },
    "Riobamba, Ecuador": {
      "city": "Riobamba",
      "lat": -1.6716698,
      "lon": -78.6607421
    },
    "Rivera, Uruguay": {
      "city": "Rivera",
      "lat": -30.900058,
      "lon": -55.5408151
    },
    "Riyadh, Saudi Arabia": {
      "city": "Riyadh",
      "lat": 24.638916,
      "lon": 46.7160104
    },
    "Rome, Italy": {
      "city": "Rome",
      "lat": 41.8933203,
      "lon": 12.4829321
    },
    "Roquetas de Mar, Spain": {
      "city": "Roquetas de Mar",
      "lat": 36.7630203,
      "lon": -2.6115886
    },
    "Rosa Zárate, Ecuador": {
      "city": "Rosa Zárate",
      "lat": -0.208534,
      "lon": -78.3940508
    },
    "Rosario, Argentina": {
      "city": "Rosario",
      "lat": -32.9593609,
      "lon": -60.6617024
    },
    "Rosice, Czech Republic": {
      "city": "Rosice",
      "lat": 49.1825874,
      "lon": 16.3878251
    },
    "Rosmalen, Netherlands": {
      "city": "Rosmalen",
      "lat": 51.71866,
      "lon": 5.3629244
    },
    "Rothrist, Switzerland": {
      "city": "Rothrist",
      "lat": 47.3029125,
      "lon": 7.8826232
    },
    "Rotterdam, Netherlands": {
      "city": "Rotterdam",
      "lat": 51.9244424,
      "lon": 4.47775
    },
    "Rottweil, Germany": {
      "city": "Rottweil",
      "lat": 48.1678244,
      "lon": 8.626979
    },
    "Roubaix, France": {
      "city": "Roubaix",
      "lat": 50.6915893,
      "lon": 3.1741734
    },
    "Rouen, France": {
      "city": "Rouen",
      "lat": 49.4404591,
      "lon": 1.0939658
    },
    "Rueil-Malmaison, France": {
      "city": "Rueil-Malmaison",
      "lat": 48.87778,
      "lon": 2.1802832
    },
    "Russeifa, Jordan": {
      "city": "Russeifa",
      "lat": 32.0174989,
      "lon": 36.0434611
    },
    "Rutherglen, Scotland": {
      "city": "Rutherglen",
      "lat": 55.8284315,
      "lon": -4.2134405
    },
    "Rælingen, Norway": {
      "city": "Rælingen",
      "lat": 59.8910114,
      "lon": 11.0789878
    },
    "Saijo, Japan": {
      "city": "Saijo",
      "lat": 33.9194466,
      "lon": 133.1813268
    },
    "Saint-Alexandre, Canada": {
      "city": "Saint-Alexandre",
      "lat": 47.6832387,
      "lon": -69.6239716
    },
    "Saint-Denis, France": {
      "city": "Saint-Denis",
      "lat": 48.9383732,
      "lon": 2.3627508
    },
    "Saint-Dié-des-Vosges, France": {
      "city": "Saint-Dié-des-Vosges",
      "lat": 48.2872305,
      "lon": 6.9474449
    },
    "Saint-Louis, Senegal": {
      "city": "Saint-Louis",
      "lat": 16.0280445,
      "lon": -16.5048686
    },
    "Saint-Marc, Haiti": {
      "city": "Saint-Marc",
      "lat": 19.1020269,
      "lon": -72.699511
    },
    "Saint-Maurice, France": {
      "city": "Saint-Maurice",
      "lat": 48.3275249,
      "lon": 7.3363439
    },
    "Sainte-Ode, Belgium": {
      "city": "Sainte-Ode",
      "lat": 50.0166761,
      "lon": 5.5595141
    },
    "Saitama Prefecture, Japan": {
      "city": "Saitama Prefecture",
      "lat": 35.9754168,
      "lon": 139.4160114
    },
    "Sakakah, Saudi Arabia": {
      "city": "Sakakah",
      "lat": 29.9784008,
      "lon": 40.2047701
    },
    "Sakiet Ezzit, Tunisia": {
      "city": "Sakiet Ezzit",
      "lat": 34.8023823,
      "lon": 10.7613107
    },
    "Salamanca, Mexico": {
      "city": "Salamanca",
      "lat": 20.6511359,
      "lon": -101.166767
    },
    "Sallent de Llobregat, Spain": {
      "city": "Sallent de Llobregat",
      "lat": 41.7897201,
      "lon": 1.8978442
    },
    "Salon-de-Provence, France": {
      "city": "Salon-de-Provence",
      "lat": 43.6405237,
      "lon": 5.0980225
    },
    "Saltcoats, Scotland": {
      "city": "Saltcoats",
      "lat": 55.6332429,
      "lon": -4.7887547
    },
    "Salvador, Brazil": {
      "city": "Salvador",
      "lat": -12.9822499,
      "lon": -38.4812772
    },
    "Salzburg, Austria": {
      "city": "Salzburg",
      "lat": 47.7981346,
      "lon": 13.0464806
    },
    "Samarkand, Uzbekistan": {
      "city": "Samarkand",
      "lat": 39.6550017,
      "lon": 66.9756954
    },
    "Sambreville, Belgium": {
      "city": "Sambreville",
      "lat": 50.4490552,
      "lon": 4.6108156
    },
    "Samfya, Zambia": {
      "city": "Samfya",
      "lat": -11.3684948,
      "lon": 29.5516598
    },
    "San Juan Bautista, Paraguay": {
      "city": "San Juan Bautista",
      "lat": -26.6690194,
      "lon": -57.1455794
    },
    "San Justo, Argentina": {
      "city": "San Justo",
      "lat": -34.6774186,
      "lon": -58.5607837
    },
    "San Lorenzo, Argentina": {
      "city": "San Lorenzo",
      "lat": -32.7454865,
      "lon": -60.743091
    },
    "San Lorenzo, Ecuador": {
      "city": "San Lorenzo",
      "lat": 0.9850635,
      "lon": -78.6869333
    },
    "San Lorenzo, Paraguay": {
      "city": "San Lorenzo",
      "lat": -25.3425224,
      "lon": -57.509397
    },
    "San Nicolás de los Arroyos, Argentina": {
      "city": "San Nicolás de los Arroyos",
      "lat": -33.3277089,
      "lon": -60.2165909
    },
    "San Sebastián, Spain": {
      "city": "San Sebastián",
      "lat": 43.3224219,
      "lon": -1.9838889
    },
    "Sandnes Municipality, Norway": null,
    "Santa Cruz de Tenerife, Spain": {
      "city": "Santa Cruz de Tenerife",
      "lat": 28.467178,
      "lon": -16.2507843
    },
    "Santa Marta, Colombia": {
      "city": "Santa Marta",
      "lat": 11.2320944,
      "lon": -74.1950916
    },
    "Santa Rosa, Argentina": {
      "city": "Santa Rosa",
      "lat": -36.6203503,
      "lon": -64.2905765
    },
    "Santander, Spain": {
      "city": "Santander",
      "lat": 43.4618932,
      "lon": -3.8100255
    },
    "Santiago de Compostela, Spain": {
      "city": "Santiago de Compostela",
      "lat": 42.9064576,
      "lon": -8.5192983
    },
    "Santo Domingo, Ecuador": {
      "city": "Santo Domingo",
      "lat": -0.2546212,
      "lon": -79.1686724
    },
    "Sarab-e Yas, Iran": {
      "city": "Sarab-e Yas",
      "lat": 33.4306317,
      "lon": 48.3437726
    },
    "Sarajevo, Bosnia and Herzegovina": {
      "city": "Sarajevo",
      "lat": 43.8570713,
      "lon": 18.4126147
    },
    "Sarandí, Argentina": {
      "city": "Sarandí",
      "lat": -34.680758,
      "lon": -58.3463289
    },
    "Sari, Iran": {
      "city": "Sari",
      "lat": 36.5537458,
      "lon": 53.0602761
    },
    "Sayram, Kazakhstan": {
      "city": "Sayram",
      "lat": 42.3004979,
      "lon": 69.7599716
    },
    "Schaerbeek, Belgium": {
      "city": "Schaerbeek",
      "lat": 50.8676041,
      "lon": 4.3737121
    },
    "Scheibbs, Austria": {
      "city": "Scheibbs",
      "lat": 48.0053866,
      "lon": 15.1674871
    },
    "Sebokeng, South Africa": {
      "city": "Sebokeng",
      "lat": -26.560278,
      "lon": 27.8625
    },
    "Senlis, France": {
      "city": "Senlis",
      "lat": 50.5331612,
      "lon": 2.1523287
    },
    "Seongnam, South Korea": {
      "city": "Seongnam",
      "lat": 37.4201556,
      "lon": 127.1262092
    },
    "Seoul, South Korea": {
      "city": "Seoul",
      "lat": 37.5666791,
      "lon": 126.9782914
    },
    "Sevran, France": {
      "city": "Sevran",
      "lat": 48.937634,
      "lon": 2.5298164
    },
    "Sfax, Tunisia": {
      "city": "Sfax",
      "lat": 34.7394361,
      "lon": 10.7604024
    },
    "Sharpeville, South Africa": {
      "city": "Sharpeville",
      "lat": -26.685,
      "lon": 27.8758333
    },
    "Sheffield, England": {
      "city": "Sheffield",
      "lat": 53.3806626,
      "lon": -1.4702278
    },
    "Shiraz, Iran": {
      "city": "Shiraz",
      "lat": 29.6060218,
      "lon": 52.5378041
    },
    "Shizuoka, Japan": {
      "city": "Shizuoka",
      "lat": 34.9751974,
      "lon": 138.3831697
    },
    "Shorqorgon, Uzbekistan": null,
    "Shushufindi Canton, Ecuador": {
      "city": "Shushufindi Canton",
      "lat": -0.1796469,
      "lon": -76.6366381
    },
    "Sidi Kacem, Morocco": {
      "city": "Sidi Kacem",
      "lat": 34.226412,
      "lon": -5.711434
    },
    "Sint-Pieters-Leeuw, Belgium": {
      "city": "Sint-Pieters-Leeuw",
      "lat": 50.7800261,
      "lon": 4.2443604
    },
    "Sintra, Portugal": {
      "city": "Sintra",
      "lat": 38.8355446,
      "lon": -9.3522371
    },
    "Sirdaryo, Uzbekistan": {
      "city": "Sirdaryo",
      "lat": 40.7510966,
      "lon": 68.8979681
    },
    "Skalka, Czech Republic": {
      "city": "Skalka",
      "lat": 49.0381823,
      "lon": 17.2053355
    },
    "Solihull, England": {
      "city": "Solihull",
      "lat": 52.4130189,
      "lon": -1.7768935
    },
    "Solin, Croatia": {
      "city": "Solin",
      "lat": 43.5442913,
      "lon": 16.4853016
    },
    "Solna, Sweden": {
      "city": "Solna",
      "lat": 59.366667,
      "lon": 18.016667
    },
    "Solothurn, Switzerland": {
      "city": "Solothurn",
      "lat": 47.31874,
      "lon": 7.6698284
    },
    "Sousse, Tunisia": {
      "city": "Sousse",
      "lat": 35.8288284,
      "lon": 10.6405254
    },
    "Soweto, South Africa": {
      "city": "Soweto",
      "lat": -26.2227778,
      "lon": 27.89
    },
    "Spijkenisse, Netherlands": {
      "city": "Spijkenisse",
      "lat": 51.8464881,
      "lon": 4.3287681
    },
    "Split, Croatia": {
      "city": "Split",
      "lat": 43.5116383,
      "lon": 16.4399659
    },
    "Spånga-Kista församling, Sweden": null,
    "Spånga-Tensta city district, Sweden": null,
    "St. Albert, Canada": {
      "city": "St. Albert",
      "lat": 53.633239,
      "lon": -113.628845
    },
    "St. Louis, United States": {
      "city": "St. Louis",
      "lat": 38.6254063,
      "lon": -90.190009
    },
    "Stavanger, Norway": {
      "city": "Stavanger",
      "lat": 58.9699675,
      "lon": 5.7318101
    },
    "Stockholm, Sweden": {
      "city": "Stockholm",
      "lat": 59.3251172,
      "lon": 18.0710935
    },
    "Stockport, England": {
      "city": "Stockport",
      "lat": 53.407901,
      "lon": -2.160243
    },
    "Stourbridge, England": {
      "city": "Stourbridge",
      "lat": 52.4577615,
      "lon": -2.1474345
    },
    "Strakonice, Czech Republic": {
      "city": "Strakonice",
      "lat": 49.261277,
      "lon": 13.9025043
    },
    "Strasbourg, France": {
      "city": "Strasbourg",
      "lat": 48.584614,
      "lon": 7.7507127
    },
    "Strombeek-Bever, Belgium": {
      "city": "Strombeek-Bever",
      "lat": 50.9109938,
      "lon": 4.3422525
    },
    "Stuttgart, Germany": {
      "city": "Stuttgart",
      "lat": 48.7784485,
      "lon": 9.1800132
    },
    "Sunderland, England": {
      "city": "Sunderland",
      "lat": 54.9058512,
      "lon": -1.3828727
    },
    "Sunyani, Ghana": {
      "city": "Sunyani",
      "lat": 7.3384389,
      "lon": -2.3309226
    },
    "Suwon, South Korea": {
      "city": "Suwon",
      "lat": 37.2633325,
      "lon": 127.0287472
    },
    "Sydney, Australia": {
      "city": "Sydney",
      "lat": -33.8698439,
      "lon": 151.2082848
    },
    "São Gonçalo, Brazil": {
      "city": "São Gonçalo",
      "lat": -22.821635,
      "lon": -42.9956797
    },
    "São José dos Campos, Brazil": {
      "city": "São José dos Campos",
      "lat": -23.1867782,
      "lon": -45.8854538
    },
    "São Paulo, Brazil": {
      "city": "São Paulo",
      "lat": -23.5506507,
      "lon": -46.6333824
    },
    "Säter, Sweden": {
      "city": "Säter",
      "lat": 60.3469718,
      "lon": 15.7486886
    },
    "Ta'if, Saudi Arabia": {
      "city": "Ta'if",
      "lat": 21.2702801,
      "lon": 40.4158308
    },
    "Tabarre, Haiti": {
      "city": "Tabarre",
      "lat": 18.5619986,
      "lon": -72.2507176
    },
    "Tadó, Colombia": {
      "city": "Tadó",
      "lat": 5.263378,
      "lon": -76.5621239
    },
    "Taguatinga, Brazil": {
      "city": "Taguatinga",
      "lat": -12.402404,
      "lon": -46.4365769
    },
    "Taher, Algeria": {
      "city": "Taher",
      "lat": 36.7712912,
      "lon": 5.897589
    },
    "Taishi, Japan": {
      "city": "Taishi",
      "lat": 34.517724,
      "lon": 135.646824
    },
    "Tamale, Ghana": {
      "city": "Tamale",
      "lat": 9.4051992,
      "lon": -0.8423986
    },
    "Tarrafal, Cape Verde": {
      "city": "Tarrafal",
      "lat": 15.2664503,
      "lon": -23.7227339
    },
    "Tashkent Region, Uzbekistan": {
      "city": "Tashkent Region",
      "lat": 41.0877657,
      "lon": 69.4978552
    },
    "Tashkent, Uzbekistan": {
      "city": "Tashkent",
      "lat": 41.3123363,
      "lon": 69.2787079
    },
    "Tavira, Portugal": {
      "city": "Tavira",
      "lat": 37.1262493,
      "lon": -7.6499121
    },
    "Te Puke, New Zealand": {
      "city": "Te Puke",
      "lat": -37.7853294,
      "lon": 176.3270238
    },
    "Tebesbest, Algeria": {
      "city": "Tebesbest",
      "lat": 33.115308,
      "lon": 6.0818339
    },
    "Techiman, Ghana": {
      "city": "Techiman",
      "lat": 7.584971,
      "lon": -1.936401
    },
    "Tegueste, Spain": {
      "city": "Tegueste",
      "lat": 28.5180023,
      "lon": -16.3357755
    },
    "Tehran, Iran": {
      "city": "Tehran",
      "lat": 35.6892523,
      "lon": 51.3896004
    },
    "Tepeji del Río de Ocampo Municipality, Mexico": null,
    "Terrassa, Spain": {
      "city": "Terrassa",
      "lat": 41.5629623,
      "lon": 2.0100492
    },
    "Terrebonne, Canada": {
      "city": "Terrebonne",
      "lat": 45.6951527,
      "lon": -73.6350148
    },
    "Teshie, Ghana": {
      "city": "Teshie",
      "lat": 5.5822343,
      "lon": -0.1135104
    },
    "The Hague, Netherlands": {
      "city": "The Hague",
      "lat": 52.0799838,
      "lon": 4.3113461
    },
    "Thembisa, South Africa": {
      "city": "Thembisa",
      "lat": -26.0221753,
      "lon": 28.2014478
    },
    "Thiaroye, Senegal": {
      "city": "Thiaroye",
      "lat": 14.7473433,
      "lon": -17.3687784
    },
    "Thomazeau, Haiti": {
      "city": "Thomazeau",
      "lat": 18.6521176,
      "lon": -72.0938014
    },
    "Thonon-les-Bains, France": {
      "city": "Thonon-les-Bains",
      "lat": 46.3731303,
      "lon": 6.4779448
    },
    "Thénia, Algeria": {
      "city": "Thénia",
      "lat": 36.724986,
      "lon": 3.556935
    },
    "Tikrit, Iraq": {
      "city": "Tikrit",
      "lat": 34.615807,
      "lon": 43.678606
    },
    "Tilburg, Netherlands": {
      "city": "Tilburg",
      "lat": 51.5856185,
      "lon": 5.0660616
    },
    "Tlalnepantla de Baz Municipality, Mexico": null,
    "Tokyo, Japan": {
      "city": "Tokyo",
      "lat": 35.6768601,
      "lon": 139.7638947
    },
    "Tongyeong, South Korea": {
      "city": "Tongyeong",
      "lat": 34.854254,
      "lon": 128.433205
    },
    "Toronto, Canada": {
      "city": "Toronto",
      "lat": 43.6534817,
      "lon": -79.3839347
    },
    "Torquay, England": {
      "city": "Torquay",
      "lat": 50.4652392,
      "lon": -3.5211361
    },
    "Torreón, Mexico": {
      "city": "Torreón",
      "lat": 25.542698,
      "lon": -103.410512
    },
    "Toulouse, France": {
      "city": "Toulouse",
      "lat": 43.6044638,
      "lon": 1.4442433
    },
    "Toyokawa, Japan": {
      "city": "Toyokawa",
      "lat": 34.827644,
      "lon": 137.378586
    },
    "Trabzon, Turkey": {
      "city": "Trabzon",
      "lat": 41.0054605,
      "lon": 39.7301463
    },
    "Tranqueras, Uruguay": {
      "city": "Tranqueras",
      "lat": -31.1926186,
      "lon": -55.7629604
    },
    "Trappes, France": {
      "city": "Trappes",
      "lat": 48.7760957,
      "lon": 1.9988356
    },
    "Travnik, Bosnia and Herzegovina": {
      "city": "Travnik",
      "lat": 44.2259454,
      "lon": 17.6661738
    },
    "Tremblay-en-France, France": {
      "city": "Tremblay-en-France",
      "lat": 48.9802035,
      "lon": 2.5589558
    },
    "Tromsø Municipality, Norway": null,
    "Trondheim, Norway": {
      "city": "Trondheim",
      "lat": 63.4304475,
      "lon": 10.3952118
    },
    "Tsuyama, Japan": {
      "city": "Tsuyama",
      "lat": 35.0691284,
      "lon": 134.0043355
    },
    "Tulln an der Donau, Austria": {
      "city": "Tulln an der Donau",
      "lat": 48.3311702,
      "lon": 16.05179
    },
    "Tumaco, Colombia": {
      "city": "Tumaco",
      "lat": 1.8062887,
      "lon": -78.7649814
    },
    "Tunis, Tunisia": {
      "city": "Tunis",
      "lat": 36.8002068,
      "lon": 10.1857757
    },
    "Tuxtla Gutiérrez, Mexico": {
      "city": "Tuxtla Gutiérrez",
      "lat": 16.753801,
      "lon": -93.115959
    },
    "Tweefontein, South Africa": {
      "city": "Tweefontein",
      "lat": -26.0366667,
      "lon": 29.1805556
    },
    "Tábor, Czech Republic": {
      "city": "Tábor",
      "lat": 49.4141533,
      "lon": 14.6587234
    },
    "Tønsberg, Norway": {
      "city": "Tønsberg",
      "lat": 59.3549795,
      "lon": 10.2820491
    },
    "Uddevalla, Sweden": {
      "city": "Uddevalla",
      "lat": 58.3490555,
      "lon": 11.9382855
    },
    "Uherské Hradiště, Czech Republic": {
      "city": "Uherské Hradiště",
      "lat": 49.0681018,
      "lon": 17.4663899
    },
    "Ulsan, South Korea": {
      "city": "Ulsan",
      "lat": 35.5391697,
      "lon": 129.3119136
    },
    "Umhausen, Austria": {
      "city": "Umhausen",
      "lat": 47.1379396,
      "lon": 10.9298872
    },
    "Utrecht, Netherlands": {
      "city": "Utrecht",
      "lat": 52.0907006,
      "lon": 5.1215634
    },
    "Valence, France": {
      "city": "Valence",
      "lat": 44.9332277,
      "lon": 4.8920811
    },
    "Valencia, Spain": {
      "city": "Valencia",
      "lat": 39.4697065,
      "lon": -0.3763353
    },
    "Vancouver, Canada": {
      "city": "Vancouver",
      "lat": 49.2608724,
      "lon": -123.113952
    },
    "Varel, Germany": {
      "city": "Varel",
      "lat": 53.395777,
      "lon": 8.1372149
    },
    "Vegachi, Colombia": {
      "city": "Vegachi",
      "lat": 6.8613372,
      "lon": -74.7234644
    },
    "Vernon, France": {
      "city": "Vernon",
      "lat": 49.0932008,
      "lon": 1.4857205
    },
    "Viana do Castelo, Portugal": {
      "city": "Viana do Castelo",
      "lat": 41.6935131,
      "lon": -8.828277
    },
    "Vic, Spain": {
      "city": "Vic",
      "lat": 41.9302021,
      "lon": 2.2545943
    },
    "Vienna, Austria": {
      "city": "Vienna",
      "lat": 48.2083537,
      "lon": 16.3725042
    },
    "Vila Nova de Famalicão, Portugal": {
      "city": "Vila Nova de Famalicão",
      "lat": 41.4064621,
      "lon": -8.5187849
    },
    "Villa del Rosario, Paraguay": {
      "city": "Villa del Rosario",
      "lat": -24.4233326,
      "lon": -57.1129598
    },
    "Villa monica alritmo, Paraguay": null,
    "Villeneuve-Saint-Georges, France": {
      "city": "Villeneuve-Saint-Georges",
      "lat": 48.7305272,
      "lon": 2.44782
    },
    "Villeurbanne, France": {
      "city": "Villeurbanne",
      "lat": 45.7660581,
      "lon": 4.8796267
    },
    "Virrey del Pino, Argentina": {
      "city": "Virrey del Pino",
      "lat": -34.8588622,
      "lon": -58.6643444
    },
    "Viseu, Portugal": {
      "city": "Viseu",
      "lat": 40.6574713,
      "lon": -7.9138664
    },
    "Vitoria-Gasteiz, Spain": {
      "city": "Vitoria-Gasteiz",
      "lat": 42.8505845,
      "lon": -2.66145
    },
    "Vitry-sur-Seine, France": {
      "city": "Vitry-sur-Seine",
      "lat": 48.7876,
      "lon": 2.39164
    },
    "Voitsberg, Austria": {
      "city": "Voitsberg",
      "lat": 47.0504742,
      "lon": 15.1474771
    },
    "Volda Municipality, Norway": null,
    "Vysoké Mýto, Czech Republic": {
      "city": "Vysoké Mýto",
      "lat": 49.9534727,
      "lon": 16.1616455
    },
    "Västerås, Sweden": {
      "city": "Västerås",
      "lat": 59.6110992,
      "lon": 16.5463679
    },
    "Wa, Ghana": {
      "city": "Wa",
      "lat": 10.0623261,
      "lon": -2.5054273
    },
    "Waiblingen, Germany": {
      "city": "Waiblingen",
      "lat": 48.8325659,
      "lon": 9.3163822
    },
    "Walthamstow, England": {
      "city": "Walthamstow",
      "lat": 51.5844701,
      "lon": -0.0188186
    },
    "Wappingers Falls, United States": {
      "city": "Wappingers Falls",
      "lat": 41.597081,
      "lon": -73.9169663
    },
    "Waregem, Belgium": {
      "city": "Waregem",
      "lat": 50.8868222,
      "lon": 3.4323622
    },
    "Warrington, England": {
      "city": "Warrington",
      "lat": 53.4015716,
      "lon": -2.5681941
    },
    "Washington, England": {
      "city": "Washington",
      "lat": 54.898614,
      "lon": -1.528827
    },
    "Wayne, United States": {
      "city": "Wayne",
      "lat": 41.6264414,
      "lon": -75.3045103
    },
    "Wellington, New Zealand": {
      "city": "Wellington",
      "lat": -41.2887953,
      "lon": 174.7772114
    },
    "Wels, Austria": {
      "city": "Wels",
      "lat": 48.1565472,
      "lon": 14.0243752
    },
    "Whitehaven, England": {
      "city": "Whitehaven",
      "lat": 54.5474199,
      "lon": -3.5885335
    },
    "Whitley Bay, England": {
      "city": "Whitley Bay",
      "lat": 55.0422091,
      "lon": -1.4454353
    },
    "Wieringen, Netherlands": {
      "city": "Wieringen",
      "lat": 52.913916,
      "lon": 4.9909934
    },
    "Willemstad, Curaçao": {
      "city": "Willemstad",
      "lat": 12.1066695,
      "lon": -68.9351307
    },
    "Wormer, Netherlands": {
      "city": "Wormer",
      "lat": 52.4983267,
      "lon": 4.8123847
    },
    "Yamoussoukro, Ivory Coast": {
      "city": "Yamoussoukro",
      "lat": 6.8200066,
      "lon": -5.2776034
    },
    "Yaoundé, Cameroon": {
      "city": "Yaoundé",
      "lat": 3.8689867,
      "lon": 11.5213344
    },
    "Yazd, Iran": {
      "city": "Yazd",
      "lat": 32.0406164,
      "lon": 54.6657189
    },
    "Yokohama, Japan": {
      "city": "Yokohama",
      "lat": 35.4503381,
      "lon": 139.6343802
    },
    "Yokosuka, Japan": {
      "city": "Yokosuka",
      "lat": 35.2814779,
      "lon": 139.6719597
    },
    "Yopougon, Ivory Coast": {
      "city": "Yopougon",
      "lat": 5.335194,
      "lon": -4.075756
    },
    "Yıldırım district, Turkey": null,
    "Zaandam, Netherlands": {
      "city": "Zaandam",
      "lat": 52.4424926,
      "lon": 4.8298607
    },
    "Zabok, Croatia": {
      "city": "Zabok",
      "lat": 46.025686,
      "lon": 15.9036337
    },
    "Zadar, Croatia": {
      "city": "Zadar",
      "lat": 44.1168594,
      "lon": 15.2353257
    },
    "Zagazig, Egypt": {
      "city": "Zagazig",
      "lat": 30.5853431,
      "lon": 31.5035127
    },
    "Zagreb, Croatia": {
      "city": "Zagreb",
      "lat": 45.8130967,
      "lon": 15.9772795
    },
    "Zanjan, Iran": {
      "city": "Zanjan",
      "lat": 36.515854,
      "lon": 48.4777616
    },
    "Zapotlán el Grande Municipality, Mexico": null,
    "Zarafshon, Uzbekistan": {
      "city": "Zarafshon",
      "lat": 39.5665657,
      "lon": 67.3469505
    },
    "Zarqa, Jordan": {
      "city": "Zarqa",
      "lat": 32.0668425,
      "lon": 36.0885771
    },
    "Zell am See, Austria": {
      "city": "Zell am See",
      "lat": 47.3239636,
      "lon": 12.7963165
    },
    "Zenica, Bosnia and Herzegovina": {
      "city": "Zenica",
      "lat": 44.199828,
      "lon": 17.9093012
    },
    "Ziguinchor, Senegal": {
      "city": "Ziguinchor",
      "lat": 12.5634929,
      "lon": -16.2724609
    },
    "Zurich, Switzerland": {
      "city": "Zurich",
      "lat": 47.3744489,
      "lon": 8.5410422
    },
    "Zutphen, Netherlands": {
      "city": "Zutphen",
      "lat": 52.1396933,
      "lon": 6.194772
    },
    "Zwijndrecht, Netherlands": {
      "city": "Zwijndrecht",
      "lat": 51.8162227,
      "lon": 4.6405166
    },
    "Zwolle, Netherlands": {
      "city": "Zwolle",
      "lat": 52.5089759,
      "lon": 6.0943765
    },
    "Çankaya, Turkey": {
      "city": "Çankaya",
      "lat": 39.8853321,
      "lon": 32.8554966
    },
    "Épinay-sous-Sénart, France": {
      "city": "Épinay-sous-Sénart",
      "lat": 48.6953018,
      "lon": 2.5159134
    },
    "Évreux, France": {
      "city": "Évreux",
      "lat": 49.0268903,
      "lon": 1.1510164
    },
    "Örnsköldsvik, Sweden": {
      "city": "Örnsköldsvik",
      "lat": 63.2888613,
      "lon": 18.7160209
    },
    "Čapljina, Bosnia and Herzegovina": {
      "city": "Čapljina",
      "lat": 43.1133536,
      "lon": 17.705039
    },
    "İkizdere, Turkey": {
      "city": "İkizdere",
      "lat": 40.7779924,
      "lon": 40.5595743
    },
    "İzmir, Turkey": {
      "city": "İzmir",
      "lat": 38.4192537,
      "lon": 27.128469
    },
    "İzmit, Turkey": {
      "city": "İzmit",
      "lat": 40.7721138,
      "lon": 29.9505623
    },
    "İznik, Turkey": {
      "city": "İznik",
      "lat": 40.4303445,
      "lon": 29.7223732
    },
    "Ķürgontepa, Uzbekistan": {
      "city": "Ķürgontepa",
      "lat": 41.3351026,
      "lon": 69.2221115
    },
    "Šibenik, Croatia": {
      "city": "Šibenik",
      "lat": 43.7340647,
      "lon": 15.8944767
    }
  }
}