{
  "source": "nominatim.openstreetmap.org",
  "updated": "2026-07-16",
  "cities": {
    "12th arrondissement of Paris, France": {
      "city": "12th arrondissement of Paris",
      "lat": 48.8534951,
      "lon": 2.3483915,
      "addresstype": "city",
      "population": "2165423",
      "actualCityName": "Paris"
    },
    "14th arrondissement of Paris, France": {
      "city": "14th arrondissement of Paris",
      "lat": 48.8534951,
      "lon": 2.3483915,
      "addresstype": "city",
      "population": "2165423",
      "actualCityName": "Paris"
    },
    "20th arrondissement of Paris, France": {
      "city": "20th arrondissement of Paris",
      "lat": 48.8534951,
      "lon": 2.3483915,
      "addresstype": "city",
      "population": "2165423",
      "actualCityName": "Paris"
    },
    "3rd arrondissement of Lyon, France": {
      "city": "3rd arrondissement of Lyon",
      "lat": 45.7578137,
      "lon": 4.8320114,
      "addresstype": "city",
      "population": "522250",
      "actualCityName": "Lyon"
    },
    "8th arrondissement of Lyon, France": {
      "city": "8th arrondissement of Lyon",
      "lat": 45.7578137,
      "lon": 4.8320114,
      "addresstype": "city",
      "population": "522250",
      "actualCityName": "Lyon"
    },
    "Aachen, Germany": {
      "city": "Aachen",
      "lat": 50.776351,
      "lon": 6.083862,
      "addresstype": "city",
      "population": "241683"
    },
    "Aaigem, Belgium": {
      "city": "Aaigem",
      "lat": 50.8894174,
      "lon": 3.9366909,
      "addresstype": "village",
      "population": null
    },
    "Aarau, Switzerland": {
      "city": "Aarau",
      "lat": 47.3927146,
      "lon": 8.0444448,
      "addresstype": "town",
      "population": "21191"
    },
    "Aarhus, Denmark": {
      "city": "Aarhus",
      "lat": 56.1496278,
      "lon": 10.2134046,
      "addresstype": "city",
      "population": "273077"
    },
    "Aberdeen, Scotland": {
      "city": "Aberdeen",
      "lat": 57.1482429,
      "lon": -2.0928095,
      "addresstype": "city",
      "population": "229060"
    },
    "Abidjan, Ivory Coast": {
      "city": "Abidjan",
      "lat": 5.320357,
      "lon": -4.016107,
      "addresstype": "city",
      "population": "7567409"
    },
    "Abiko, Japan": {
      "city": "Abiko",
      "lat": 35.863999,
      "lon": 140.0280653,
      "addresstype": "city",
      "population": "131398"
    },
    "Abuja, Nigeria": {
      "city": "Abuja",
      "lat": 9.0643305,
      "lon": 7.4892974,
      "addresstype": "city",
      "population": "776298"
    },
    "Accra, Ghana": {
      "city": "Accra",
      "lat": 5.5571096,
      "lon": -0.2012376,
      "addresstype": "city",
      "population": "2388000"
    },
    "Adelaide, Australia": {
      "city": "Adelaide",
      "lat": -34.9281805,
      "lon": 138.5999312,
      "addresstype": "city",
      "population": "1245011"
    },
    "Adjamé, Ivory Coast": {
      "city": "Adjamé",
      "lat": 5.3531211,
      "lon": -4.0222008,
      "addresstype": "suburb",
      "population": "254290"
    },
    "Adligenswil, Switzerland": {
      "city": "Adligenswil",
      "lat": 47.070535,
      "lon": 8.368244,
      "addresstype": "village",
      "population": "5475"
    },
    "Agen, France": {
      "city": "Agen",
      "lat": 44.2015827,
      "lon": 0.6176112,
      "addresstype": "town",
      "population": "32485"
    },
    "Ahome Municipality, Mexico": {
      "city": "Ahome Municipality",
      "lat": 25.9240491,
      "lon": -109.2058344,
      "addresstype": "county",
      "population": "459310",
      "actualCityName": "Ahome"
    },
    "Ahome, Mexico": {
      "city": "Ahome",
      "lat": 25.9240491,
      "lon": -109.2058344,
      "addresstype": "county",
      "population": "459310"
    },
    "Aix-les-Bains, France": {
      "city": "Aix-les-Bains",
      "lat": 45.6886292,
      "lon": 5.9146362,
      "addresstype": "town",
      "population": "31874"
    },
    "Ajaccio, France": {
      "city": "Ajaccio",
      "lat": 41.9263991,
      "lon": 8.7376029,
      "addresstype": "city",
      "population": "73822"
    },
    "Ajax, Canada": {
      "city": "Ajax",
      "lat": 43.8505287,
      "lon": -79.0208814,
      "addresstype": "city",
      "population": "119677"
    },
    "Al Diwaniyah, Iraq": {
      "city": "Al Diwaniyah",
      "lat": 31.9853304,
      "lon": 44.9236266,
      "addresstype": "district",
      "population": "650927"
    },
    "Al-Ahsa Oasis, Saudi Arabia": {
      "city": "Al-Ahsa Oasis",
      "lat": 25.3696585,
      "lon": 49.5865224,
      "addresstype": "override"
    },
    "Al-Qahirah, Egypt": {
      "city": "Al-Qahirah",
      "lat": 30.0443879,
      "lon": 31.2357257,
      "addresstype": "city",
      "population": "9120350"
    },
    "Albacete, Spain": {
      "city": "Albacete",
      "lat": 38.9950921,
      "lon": -1.8559154,
      "addresstype": "city",
      "population": "175068"
    },
    "Alella, Spain": {
      "city": "Alella",
      "lat": 41.4955603,
      "lon": 2.2935325,
      "addresstype": "city",
      "population": "10251"
    },
    "Alfredo Baquerizo Moreno, Ecuador": {
      "city": "Alfredo Baquerizo Moreno",
      "lat": -1.8913275,
      "lon": -79.555226,
      "addresstype": "town",
      "population": null
    },
    "Algueirão - Mem Martins, Portugal": {
      "city": "Algueirão - Mem Martins",
      "lat": 38.8033024,
      "lon": -9.3348119,
      "addresstype": "city",
      "population": "68654"
    },
    "Almada, Portugal": {
      "city": "Almada",
      "lat": 38.6831302,
      "lon": -9.1576301,
      "addresstype": "city",
      "population": "177268"
    },
    "Almere, Netherlands": {
      "city": "Almere",
      "lat": 52.3705038,
      "lon": 5.2185859,
      "addresstype": "city",
      "population": "222825"
    },
    "Altındağ, Turkey": {
      "city": "Altındağ",
      "lat": 39.9523587,
      "lon": 32.8662025,
      "addresstype": "town",
      "population": "412267"
    },
    "Amadora, Portugal": {
      "city": "Amadora",
      "lat": 38.758959,
      "lon": -9.2365233,
      "addresstype": "city",
      "population": "171500"
    },
    "Amagasaki, Japan": {
      "city": "Amagasaki",
      "lat": 34.7339783,
      "lon": 135.4064015,
      "addresstype": "city",
      "population": "459593"
    },
    "Amalfi, Colombia": {
      "city": "Amalfi",
      "lat": 6.9070097,
      "lon": -75.0735908,
      "addresstype": "town",
      "population": "25962"
    },
    "Amberg, Germany": {
      "city": "Amberg",
      "lat": 49.4543662,
      "lon": 11.8474021,
      "addresstype": "county",
      "population": null
    },
    "Amman, Jordan": {
      "city": "Amman",
      "lat": 31.9515694,
      "lon": 35.9239625,
      "addresstype": "city",
      "population": "4000000"
    },
    "Amsterdam, Netherlands": {
      "city": "Amsterdam",
      "lat": 52.3730796,
      "lon": 4.8924534,
      "addresstype": "city",
      "population": "881933"
    },
    "Anchorage, United States": {
      "city": "Anchorage",
      "lat": 61.2163129,
      "lon": -149.894852,
      "addresstype": "city",
      "population": "291247"
    },
    "Angers, France": {
      "city": "Angers",
      "lat": 47.4739884,
      "lon": -0.5515588,
      "addresstype": "city",
      "population": "157175"
    },
    "Ankawa, Iraq": {
      "city": "Ankawa",
      "lat": 36.2325997,
      "lon": 43.9972173,
      "addresstype": "municipality",
      "population": null
    },
    "Ansan, South Korea": {
      "city": "Ansan",
      "lat": 37.3217152,
      "lon": 126.8308604,
      "addresstype": "city",
      "population": "677710"
    },
    "Antalya, Turkey": {
      "city": "Antalya",
      "lat": 36.8865728,
      "lon": 30.7030242,
      "addresstype": "city",
      "population": "2722103"
    },
    "Antwerp, Belgium": {
      "city": "Antwerp",
      "lat": 51.2211097,
      "lon": 4.3997081,
      "addresstype": "city",
      "population": "525935"
    },
    "Appleton, United States": {
      "city": "Appleton",
      "lat": 44.2613967,
      "lon": -88.4069744,
      "addresstype": "city",
      "population": "72623"
    },
    "Aqaba, Jordan": {
      "city": "Aqaba",
      "lat": 29.5266483,
      "lon": 35.0075433,
      "addresstype": "city",
      "population": "103100"
    },
    "Ar Ramtha, Jordan": {
      "city": "Ar Ramtha",
      "lat": 32.559167,
      "lon": 36.006944,
      "addresstype": "city",
      "population": null
    },
    "Arak, Iran": {
      "city": "Arak",
      "lat": 34.0862719,
      "lon": 49.6893884,
      "addresstype": "city",
      "population": "526200"
    },
    "Aristóbulo del Valle, Argentina": {
      "city": "Aristóbulo del Valle",
      "lat": -27.099185,
      "lon": -54.8935248,
      "addresstype": "town",
      "population": "24298"
    },
    "Arkel, Netherlands": {
      "city": "Arkel",
      "lat": 51.8634805,
      "lon": 4.993608,
      "addresstype": "village",
      "population": "3439"
    },
    "Arlington, United States": {
      "city": "Arlington",
      "lat": 32.7355816,
      "lon": -97.1071186,
      "addresstype": "city",
      "population": "365438"
    },
    "Arlon, Belgium": {
      "city": "Arlon",
      "lat": 49.6834601,
      "lon": 5.8167711,
      "addresstype": "town",
      "population": "28759"
    },
    "Arnemuiden, Netherlands": {
      "city": "Arnemuiden",
      "lat": 51.5000009,
      "lon": 3.6762457,
      "addresstype": "village",
      "population": "5315"
    },
    "Arnhem, Netherlands": {
      "city": "Arnhem",
      "lat": 51.984257,
      "lon": 5.9108573,
      "addresstype": "city",
      "population": "165770"
    },
    "Arpajon, France": {
      "city": "Arpajon",
      "lat": 44.9034428,
      "lon": 2.4570176,
      "addresstype": "village",
      "population": "6315"
    },
    "Artigas, Uruguay": {
      "city": "Artigas",
      "lat": -30.3984136,
      "lon": -56.4638078,
      "addresstype": "city",
      "population": "43843"
    },
    "Asse, Belgium": {
      "city": "Asse",
      "lat": 50.9094333,
      "lon": 4.2015646,
      "addresstype": "town",
      "population": null
    },
    "Assomada, Cape Verde": {
      "city": "Assomada",
      "lat": 15.097635,
      "lon": -23.6668745,
      "addresstype": "town",
      "population": null
    },
    "Asteasu, Spain": {
      "city": "Asteasu",
      "lat": 43.192859,
      "lon": -2.0953446,
      "addresstype": "village",
      "population": "1565"
    },
    "Asunción, Paraguay": {
      "city": "Asunción",
      "lat": -25.2800459,
      "lon": -57.6343814,
      "addresstype": "region",
      "population": "742023"
    },
    "Aubervilliers, France": {
      "city": "Aubervilliers",
      "lat": 48.9146078,
      "lon": 2.3821895,
      "addresstype": "town",
      "population": "90071"
    },
    "Auckland, New Zealand": {
      "city": "Auckland",
      "lat": -36.852095,
      "lon": 174.7631803,
      "addresstype": "city",
      "population": "1463000"
    },
    "Autlán de Navarro Municipality, Mexico": {
      "city": "Autlán de Navarro Municipality",
      "lat": 19.7703379,
      "lon": -104.3642747,
      "addresstype": "town",
      "population": "45382",
      "actualCityName": "Autlán de Navarro"
    },
    "Autlán de Navarro, Mexico": {
      "city": "Autlán de Navarro",
      "lat": 19.7703379,
      "lon": -104.3642747,
      "addresstype": "town",
      "population": "45382"
    },
    "Aveiro, Portugal": {
      "city": "Aveiro",
      "lat": 40.640496,
      "lon": -8.6537841,
      "addresstype": "city",
      "population": "80978"
    },
    "Aïn M'lila, Algeria": {
      "city": "Aïn M'lila",
      "lat": 36.0375444,
      "lon": 6.570986,
      "addresstype": "town",
      "population": "88441"
    },
    "Babahoyo, Ecuador": {
      "city": "Babahoyo",
      "lat": -1.8009022,
      "lon": -79.5338214,
      "addresstype": "municipality",
      "population": "84164"
    },
    "Backnang, Germany": {
      "city": "Backnang",
      "lat": 48.9468454,
      "lon": 9.4303638,
      "addresstype": "town",
      "population": "38184"
    },
    "Baghdad, Iraq": {
      "city": "Baghdad",
      "lat": 33.3061701,
      "lon": 44.3872213,
      "addresstype": "city",
      "population": "7216040"
    },
    "Bahmai County, Iran": {
      "city": "Bahmai County",
      "lat": 30.9838624,
      "lon": 50.0792541,
      "addresstype": "county",
      "population": null
    },
    "Bahnemir, Iran": {
      "city": "Bahnemir",
      "lat": 36.6702899,
      "lon": 52.7620524,
      "addresstype": "town",
      "population": "8000"
    },
    "Bahía Blanca, Argentina": {
      "city": "Bahía Blanca",
      "lat": -38.7176522,
      "lon": -62.2654871,
      "addresstype": "city",
      "population": "301572"
    },
    "Baie-Mahault, France": {
      "city": "Baie-Mahault",
      "lat": 16.2679458,
      "lon": -61.5870766,
      "addresstype": "town",
      "population": "30909"
    },
    "Balaguer, Spain": {
      "city": "Balaguer",
      "lat": 41.7896408,
      "lon": 0.8050711,
      "addresstype": "town",
      "population": "17667"
    },
    "Balfron, Scotland": {
      "city": "Balfron",
      "lat": 56.0680711,
      "lon": -4.3356705,
      "addresstype": "village",
      "population": "2200"
    },
    "Bambali, Senegal": {
      "city": "Bambali",
      "lat": 12.655907,
      "lon": -15.4529962,
      "addresstype": "village",
      "population": null
    },
    "Bandar-e Anzali, Iran": {
      "city": "Bandar-e Anzali",
      "lat": 37.4716356,
      "lon": 49.4685904,
      "addresstype": "city",
      "population": "139016"
    },
    "Banja Luka, Bosnia and Herzegovina": {
      "city": "Banja Luka",
      "lat": 44.7720845,
      "lon": 17.1917651,
      "addresstype": "city",
      "population": "138963"
    },
    "Barcelona, Spain": {
      "city": "Barcelona",
      "lat": 41.3825802,
      "lon": 2.177073,
      "addresstype": "city",
      "population": "1713247"
    },
    "Barnet, England": {
      "city": "Barnet",
      "lat": 51.65309,
      "lon": -0.2002261,
      "addresstype": "town",
      "population": "111973"
    },
    "Barnsley, England": {
      "city": "Barnsley",
      "lat": 53.5527719,
      "lon": -1.4827755,
      "addresstype": "town",
      "population": "245199"
    },
    "Barrancas, Colombia": {
      "city": "Barrancas",
      "lat": 10.9541684,
      "lon": -72.7888637,
      "addresstype": "town",
      "population": "35743"
    },
    "Barreiro, Portugal": {
      "city": "Barreiro",
      "lat": 38.6340657,
      "lon": -9.0478559,
      "addresstype": "municipality",
      "population": "78359"
    },
    "Basel, Switzerland": {
      "city": "Basel",
      "lat": 47.5581077,
      "lon": 7.5878261,
      "addresstype": "city",
      "population": "174491"
    },
    "Bayat, Turkey": {
      "city": "Bayat",
      "lat": 40.5789741,
      "lon": 34.926489,
      "addresstype": "suburb",
      "population": null
    },
    "Bayonne, France": {
      "city": "Bayonne",
      "lat": 43.4945144,
      "lon": -1.4736657,
      "addresstype": "town",
      "population": "52749"
    },
    "Bear, United States": {
      "city": "Bear",
      "lat": 39.6292091,
      "lon": -75.6585381,
      "addresstype": "village",
      "population": null
    },
    "Bechem, Ghana": {
      "city": "Bechem",
      "lat": 7.08778,
      "lon": -2.0246,
      "addresstype": "town",
      "population": null
    },
    "Beheira Governorate, Egypt": {
      "city": "Beheira Governorate",
      "lat": 30.7915206,
      "lon": 30.3465488,
      "addresstype": "state",
      "population": null
    },
    "Belén de Escobar, Argentina": {
      "city": "Belén de Escobar",
      "lat": -34.3453213,
      "lon": -58.7950701,
      "addresstype": "town",
      "population": "54678"
    },
    "Benavente, Portugal": {
      "city": "Benavente",
      "lat": 38.9826508,
      "lon": -8.8095788,
      "addresstype": "town",
      "population": "29716"
    },
    "Berchem-Sainte-Agathe, Belgium": {
      "city": "Berchem-Sainte-Agathe",
      "lat": 50.8649231,
      "lon": 4.2946734,
      "addresstype": "town",
      "population": "22975"
    },
    "Bergen, Norway": {
      "city": "Bergen",
      "lat": 60.3943055,
      "lon": 5.3259192,
      "addresstype": "municipality",
      "population": "293709"
    },
    "Berlin, Germany": {
      "city": "Berlin",
      "lat": 52.5173885,
      "lon": 13.3951309,
      "addresstype": "city",
      "population": "3769962"
    },
    "Berwyn, United States": {
      "city": "Berwyn",
      "lat": 41.8505874,
      "lon": -87.7936685,
      "addresstype": "town",
      "population": "57250"
    },
    "Bethlehem, South Africa": {
      "city": "Bethlehem",
      "lat": -28.2308333,
      "lon": 28.3088889,
      "addresstype": "town",
      "population": null
    },
    "Bicas, Brazil": {
      "city": "Bicas",
      "lat": -21.7213723,
      "lon": -43.0604327,
      "addresstype": "municipality",
      "population": "13978"
    },
    "Biel/Bienne, Switzerland": {
      "city": "Biel/Bienne",
      "lat": 47.1402077,
      "lon": 7.2439029,
      "addresstype": "city",
      "population": "56378"
    },
    "Bilbao, Spain": {
      "city": "Bilbao",
      "lat": 43.2630018,
      "lon": -2.9350039,
      "addresstype": "city",
      "population": "350975"
    },
    "Bingerville, Ivory Coast": {
      "city": "Bingerville",
      "lat": 5.3577727,
      "lon": -3.8885591,
      "addresstype": "city",
      "population": "204656"
    },
    "Binningen, Switzerland": {
      "city": "Binningen",
      "lat": 47.53656,
      "lon": 7.570077,
      "addresstype": "town",
      "population": "14905"
    },
    "Birmingham, United States": {
      "city": "Birmingham",
      "lat": 33.5206824,
      "lon": -86.8024326,
      "addresstype": "city",
      "population": "200733"
    },
    "Bishop Lavis, South Africa": {
      "city": "Bishop Lavis",
      "lat": -33.9486111,
      "lon": 18.5758333,
      "addresstype": "suburb",
      "population": null
    },
    "Bloemfontein, South Africa": {
      "city": "Bloemfontein",
      "lat": -29.116395,
      "lon": 26.215496,
      "addresstype": "city",
      "population": "370000"
    },
    "Blyth, England": {
      "city": "Blyth",
      "lat": 55.1270903,
      "lon": -1.5099726,
      "addresstype": "town",
      "population": null
    },
    "Boa Vista, Cape Verde": {
      "city": "Boa Vista",
      "lat": 16.099509,
      "lon": -22.8009411,
      "addresstype": "county",
      "population": null
    },
    "Bochum, Germany": {
      "city": "Bochum",
      "lat": 51.4818111,
      "lon": 7.2196635,
      "addresstype": "city",
      "population": "371075"
    },
    "Bodø Municipality, Norway": {
      "city": "Bodø Municipality",
      "lat": 67.2844313,
      "lon": 14.3817503,
      "addresstype": "municipality",
      "population": "53725",
      "actualCityName": "Bodø"
    },
    "Bodø, Norway": {
      "city": "Bodø",
      "lat": 67.2844313,
      "lon": 14.3817503,
      "addresstype": "municipality",
      "population": "53725"
    },
    "Bogotá, Colombia": {
      "city": "Bogotá",
      "lat": 4.6533817,
      "lon": -74.0836331,
      "addresstype": "city",
      "population": "8181047"
    },
    "Bompata, Ghana": {
      "city": "Bompata",
      "lat": 6.634161,
      "lon": -1.059595,
      "addresstype": "village",
      "population": null
    },
    "Bondy, France": {
      "city": "Bondy",
      "lat": 48.9031,
      "lon": 2.48291,
      "addresstype": "town",
      "population": "52905"
    },
    "Bonn, Germany": {
      "city": "Bonn",
      "lat": 50.7352621,
      "lon": 7.1024635,
      "addresstype": "city",
      "population": "335913"
    },
    "Borne, Netherlands": {
      "city": "Borne",
      "lat": 52.3018287,
      "lon": 6.7502395,
      "addresstype": "town",
      "population": "24741"
    },
    "Bou Ismaïl, Algeria": {
      "city": "Bou Ismaïl",
      "lat": 36.642758,
      "lon": 2.6899362,
      "addresstype": "town",
      "population": "41684"
    },
    "Bouaké, Ivory Coast": {
      "city": "Bouaké",
      "lat": 7.6890212,
      "lon": -5.0283552,
      "addresstype": "city",
      "population": "832371"
    },
    "Bourgoin-Jallieu, France": {
      "city": "Bourgoin-Jallieu",
      "lat": 45.5860438,
      "lon": 5.2772265,
      "addresstype": "town",
      "population": "29577"
    },
    "Bourouba, Algeria": {
      "city": "Bourouba",
      "lat": 36.7138232,
      "lon": 3.1125789,
      "addresstype": "suburb",
      "population": "71661"
    },
    "Boxtel, Netherlands": {
      "city": "Boxtel",
      "lat": 51.5890603,
      "lon": 5.3157954,
      "addresstype": "municipality",
      "population": "30801"
    },
    "Braga, Portugal": {
      "city": "Braga",
      "lat": 41.5510583,
      "lon": -8.4280045,
      "addresstype": "city",
      "population": "193349"
    },
    "Brampton, Canada": {
      "city": "Brampton",
      "lat": 43.685832,
      "lon": -79.7599366,
      "addresstype": "city",
      "population": "593638"
    },
    "Brandenburg an der Havel, Germany": {
      "city": "Brandenburg an der Havel",
      "lat": 52.4108261,
      "lon": 12.5497933,
      "addresstype": "city",
      "population": "74113"
    },
    "Brandýs nad Labem-Stará Boleslav, Czech Republic": {
      "city": "Brandýs nad Labem-Stará Boleslav",
      "lat": 50.1912412,
      "lon": 14.6649786,
      "addresstype": "town",
      "population": "17290"
    },
    "Breda, Netherlands": {
      "city": "Breda",
      "lat": 51.5887845,
      "lon": 4.7760237,
      "addresstype": "city",
      "population": "150008"
    },
    "Bredene, Belgium": {
      "city": "Bredene",
      "lat": 51.2408491,
      "lon": 2.9647914,
      "addresstype": "town",
      "population": "16411"
    },
    "Bree, Belgium": {
      "city": "Bree",
      "lat": 51.1416131,
      "lon": 5.5974552,
      "addresstype": "town",
      "population": "14774"
    },
    "Breisach, Germany": {
      "city": "Breisach",
      "lat": 48.0226167,
      "lon": 7.6040544,
      "addresstype": "suburb",
      "population": null
    },
    "Bremen, Germany": {
      "city": "Bremen",
      "lat": 53.0758196,
      "lon": 8.8071646,
      "addresstype": "city",
      "population": "551767"
    },
    "Brisbane, Australia": {
      "city": "Brisbane",
      "lat": -27.4689623,
      "lon": 153.0235009,
      "addresstype": "city",
      "population": "2287896"
    },
    "Bristol, England": {
      "city": "Bristol",
      "lat": 51.4538022,
      "lon": -2.5972985,
      "addresstype": "city",
      "population": "463400"
    },
    "Brooklyn, United States": {
      "city": "Brooklyn",
      "lat": 40.6526006,
      "lon": -73.9497211,
      "addresstype": "suburb",
      "population": "2736074"
    },
    "Bruges, Belgium": {
      "city": "Bruges",
      "lat": 51.2085526,
      "lon": 3.226772,
      "addresstype": "city",
      "population": "117639"
    },
    "Brussels, Belgium": {
      "city": "Brussels",
      "lat": 50.8467372,
      "lon": 4.352493,
      "addresstype": "city",
      "population": "188137"
    },
    "Brussels-Capital Region, Belgium": {
      "city": "Brussels-Capital Region",
      "lat": 50.8387951,
      "lon": 4.3753041,
      "addresstype": "county",
      "population": null
    },
    "Buduburam, Ghana": {
      "city": "Buduburam",
      "lat": 5.5234971,
      "lon": -0.4776318,
      "addresstype": "town",
      "population": null
    },
    "Buenos Aires, Argentina": {
      "city": "Buenos Aires",
      "lat": -34.6095579,
      "lon": -58.3887904,
      "addresstype": "city",
      "population": "2891082"
    },
    "Bunia, DR Congo": {
      "city": "Bunia",
      "lat": 1.5620529,
      "lon": 30.2478844,
      "addresstype": "city",
      "population": "366126"
    },
    "Burnaby, Canada": {
      "city": "Burnaby",
      "lat": 49.2433804,
      "lon": -122.972545,
      "addresstype": "city",
      "population": "249125"
    },
    "Busan, South Korea": {
      "city": "Busan",
      "lat": 35.1799528,
      "lon": 129.0752365,
      "addresstype": "city",
      "population": "3586079"
    },
    "Bushehr, Iran": {
      "city": "Bushehr",
      "lat": 28.9310786,
      "lon": 50.8458443,
      "addresstype": "city",
      "population": "223504"
    },
    "Bærum Municipality, Norway": {
      "city": "Bærum Municipality",
      "lat": 59.9289639,
      "lon": 10.4997108,
      "addresstype": "municipality",
      "population": "132358",
      "actualCityName": "Bærum"
    },
    "Bærum, Norway": {
      "city": "Bærum",
      "lat": 59.9289639,
      "lon": 10.4997108,
      "addresstype": "municipality",
      "population": "132358"
    },
    "Béchar, Algeria": {
      "city": "Béchar",
      "lat": 31.616312,
      "lon": -2.21841,
      "addresstype": "city",
      "population": "165627"
    },
    "Caacupé, Paraguay": {
      "city": "Caacupé",
      "lat": -25.3856888,
      "lon": -57.140477,
      "addresstype": "town",
      "population": "47251"
    },
    "Caaguazú, Paraguay": {
      "city": "Caaguazú",
      "lat": -25.4661756,
      "lon": -56.0181685,
      "addresstype": "city",
      "population": "146513"
    },
    "Cairo, Egypt": {
      "city": "Cairo",
      "lat": 30.0443879,
      "lon": 31.2357257,
      "addresstype": "city",
      "population": "9120350"
    },
    "Calchín, Argentina": {
      "city": "Calchín",
      "lat": -31.666667,
      "lon": -63.2,
      "addresstype": "village",
      "population": "2435"
    },
    "Cali, Colombia": {
      "city": "Cali",
      "lat": 3.4519988,
      "lon": -76.5325259,
      "addresstype": "city",
      "population": "2285099"
    },
    "Caloto, Colombia": {
      "city": "Caloto",
      "lat": 3.0336985,
      "lon": -76.4085199,
      "addresstype": "town",
      "population": "30181"
    },
    "Camperdown, Australia": {
      "city": "Camperdown",
      "lat": -33.8896116,
      "lon": 151.1800986,
      "addresstype": "suburb",
      "population": null
    },
    "Campinas, Brazil": {
      "city": "Campinas",
      "lat": -22.9056391,
      "lon": -47.059564,
      "addresstype": "municipality",
      "population": "1139047"
    },
    "Campo Grande, Brazil": {
      "city": "Campo Grande",
      "lat": -20.4640173,
      "lon": -54.6162947,
      "addresstype": "municipality",
      "population": "898100"
    },
    "Canberra, Australia": {
      "city": "Canberra",
      "lat": -35.2975906,
      "lon": 149.1012676,
      "addresstype": "city",
      "population": "466566"
    },
    "Canela, Brazil": {
      "city": "Canela",
      "lat": -29.3447033,
      "lon": -50.7604149,
      "addresstype": "municipality",
      "population": "48946"
    },
    "Canelones, Uruguay": {
      "city": "Canelones",
      "lat": -34.5242373,
      "lon": -56.2817519,
      "addresstype": "city",
      "population": "24185"
    },
    "Cannes, France": {
      "city": "Cannes",
      "lat": 43.5515198,
      "lon": 7.0134418,
      "addresstype": "town",
      "population": "73255"
    },
    "Cape Town, South Africa": {
      "city": "Cape Town",
      "lat": -33.9288301,
      "lon": 18.4172197,
      "addresstype": "city",
      "population": "3740026"
    },
    "Cape Verde, Cape Verde": null,
    "Capelle aan den IJssel, Netherlands": {
      "city": "Capelle aan den IJssel",
      "lat": 51.9312552,
      "lon": 4.5883596,
      "addresstype": "town",
      "population": "67122"
    },
    "Carapeguá, Paraguay": {
      "city": "Carapeguá",
      "lat": -25.767636,
      "lon": -57.2425331,
      "addresstype": "town",
      "population": null
    },
    "Cartagena, Colombia": {
      "city": "Cartagena",
      "lat": 10.4265566,
      "lon": -75.5441671,
      "addresstype": "city",
      "population": "1028736"
    },
    "Casablanca, Morocco": {
      "city": "Casablanca",
      "lat": 33.5945144,
      "lon": -7.6200284,
      "addresstype": "city",
      "population": "3215935"
    },
    "Castricum, Netherlands": {
      "city": "Castricum",
      "lat": 52.5496739,
      "lon": 4.6696185,
      "addresstype": "town",
      "population": "35986"
    },
    "Catanduva, Brazil": {
      "city": "Catanduva",
      "lat": -21.1331035,
      "lon": -48.9712817,
      "addresstype": "municipality",
      "population": "115791"
    },
    "Cayenne, France": {
      "city": "Cayenne",
      "lat": 4.9371544,
      "lon": -52.3258736,
      "addresstype": "city",
      "population": "65493"
    },
    "Celaya, Mexico": {
      "city": "Celaya",
      "lat": 20.521788,
      "lon": -100.8140458,
      "addresstype": "city",
      "population": "378143"
    },
    "Cergy-Pontoise, France": {
      "city": "Cergy-Pontoise",
      "lat": 49.0527528,
      "lon": 2.0388736,
      "addresstype": "town",
      "population": "68348"
    },
    "Cham, Switzerland": {
      "city": "Cham",
      "lat": 47.1823761,
      "lon": 8.4611036,
      "addresstype": "town",
      "population": "17060"
    },
    "Champigny-sur-Marne, France": {
      "city": "Champigny-sur-Marne",
      "lat": 48.8137847,
      "lon": 2.510611,
      "addresstype": "town",
      "population": "77724"
    },
    "Charleroi, Belgium": {
      "city": "Charleroi",
      "lat": 50.4116233,
      "lon": 4.444528,
      "addresstype": "city",
      "population": "202730"
    },
    "Chirakchi, Uzbekistan": {
      "city": "Chirakchi",
      "lat": 39.03341,
      "lon": 66.5758025,
      "addresstype": "town",
      "population": "21000"
    },
    "Chlef, Algeria": {
      "city": "Chlef",
      "lat": 36.1649385,
      "lon": 1.3315687,
      "addresstype": "city",
      "population": "178616"
    },
    "Christchurch, New Zealand": {
      "city": "Christchurch",
      "lat": -43.530955,
      "lon": 172.6364343,
      "addresstype": "city",
      "population": "380600"
    },
    "Chuncheon, South Korea": {
      "city": "Chuncheon",
      "lat": 37.8810569,
      "lon": 127.7297641,
      "addresstype": "city",
      "population": "280061"
    },
    "Châlons-en-Champagne, France": {
      "city": "Châlons-en-Champagne",
      "lat": 48.9566218,
      "lon": 4.3628851,
      "addresstype": "town",
      "population": "43877"
    },
    "Châteaubriant, France": {
      "city": "Châteaubriant",
      "lat": 47.7194057,
      "lon": -1.3757282,
      "addresstype": "town",
      "population": "12260"
    },
    "Châtenay-Malabry, France": {
      "city": "Châtenay-Malabry",
      "lat": 48.7670404,
      "lon": 2.2775316,
      "addresstype": "town",
      "population": "34898"
    },
    "Cihuatlán, Mexico": {
      "city": "Cihuatlán",
      "lat": 19.2390374,
      "lon": -104.5618485,
      "addresstype": "town",
      "population": "18787"
    },
    "Cité Soleil, Haiti": {
      "city": "Cité Soleil",
      "lat": 18.5783693,
      "lon": -72.3355123,
      "addresstype": "town",
      "population": null
    },
    "Ciudad Juárez, Mexico": {
      "city": "Ciudad Juárez",
      "lat": 31.6907979,
      "lon": -106.4253215,
      "addresstype": "city",
      "population": "1501551"
    },
    "Ciudad del Este, Paraguay": {
      "city": "Ciudad del Este",
      "lat": -25.5169015,
      "lon": -54.6168645,
      "addresstype": "city",
      "population": "320782"
    },
    "Ciudadela, Argentina": {
      "city": "Ciudadela",
      "lat": -34.633603,
      "lon": -58.5426528,
      "addresstype": "town",
      "population": "73031"
    },
    "Clichy, France": {
      "city": "Clichy",
      "lat": 48.9026,
      "lon": 2.30551,
      "addresstype": "town",
      "population": "64849"
    },
    "Cockermouth, England": {
      "city": "Cockermouth",
      "lat": 54.6636532,
      "lon": -3.3657782,
      "addresstype": "town",
      "population": null
    },
    "Coimbra, Portugal": {
      "city": "Coimbra",
      "lat": 40.2111931,
      "lon": -8.4294632,
      "addresstype": "city",
      "population": "140838"
    },
    "Colmar, France": {
      "city": "Colmar",
      "lat": 48.0777517,
      "lon": 7.3579641,
      "addresstype": "town",
      "population": "67730"
    },
    "Cologne, Germany": {
      "city": "Cologne",
      "lat": 50.938361,
      "lon": 6.959974,
      "addresstype": "city",
      "population": "1097519"
    },
    "Colombes, France": {
      "city": "Colombes",
      "lat": 48.9227298,
      "lon": 2.2543631,
      "addresstype": "town",
      "population": "88870"
    },
    "Colonia del Sacramento, Uruguay": {
      "city": "Colonia del Sacramento",
      "lat": -34.4698592,
      "lon": -57.8433679,
      "addresstype": "city",
      "population": "32159"
    },
    "Colón City, Panama": {
      "city": "Colón City",
      "lat": 9.3553005,
      "lon": -79.8974085,
      "addresstype": "city",
      "population": "280777"
    },
    "Conakry, Guinea": {
      "city": "Conakry",
      "lat": 9.5170602,
      "lon": -13.6998434,
      "addresstype": "city",
      "population": "1660973"
    },
    "Concordia, Argentina": {
      "city": "Concordia",
      "lat": -31.3972539,
      "lon": -58.0173305,
      "addresstype": "city",
      "population": "149450"
    },
    "Constantine, Algeria": {
      "city": "Constantine",
      "lat": 36.3641642,
      "lon": 6.6084281,
      "addresstype": "city",
      "population": "448374"
    },
    "Copenhagen, Denmark": {
      "city": "Copenhagen",
      "lat": 55.6867243,
      "lon": 12.5700724,
      "addresstype": "city",
      "population": "613288"
    },
    "Corgi, Iraq": null,
    "Courcouronnes, France": {
      "city": "Courcouronnes",
      "lat": 48.622557,
      "lon": 2.4118939,
      "addresstype": "city_district",
      "population": null
    },
    "Coyuca de Catalán Municipality, Mexico": {
      "city": "Coyuca de Catalán Municipality",
      "lat": 18.3253222,
      "lon": -100.6995289,
      "addresstype": "town",
      "population": "6857",
      "actualCityName": "Coyuca de Catalán"
    },
    "Coyuca de Catalán, Mexico": {
      "city": "Coyuca de Catalán",
      "lat": 18.3253222,
      "lon": -100.6995289,
      "addresstype": "town",
      "population": "6857"
    },
    "Creil, France": {
      "city": "Creil",
      "lat": 49.2607914,
      "lon": 2.4733771,
      "addresstype": "town",
      "population": "36106"
    },
    "Croydon, England": {
      "city": "Croydon",
      "lat": 51.3713049,
      "lon": -0.101957,
      "addresstype": "town",
      "population": "173314"
    },
    "Crumlin, Ireland": {
      "city": "Crumlin",
      "lat": 53.3202316,
      "lon": -6.3161673,
      "addresstype": "locality",
      "population": null
    },
    "Cuauhtémoc, Mexico": {
      "city": "Cuauhtémoc",
      "lat": 19.4326296,
      "lon": -99.1331785,
      "addresstype": "city",
      "population": "9209944"
    },
    "Curaçao, Netherlands": null,
    "Curitiba, Brazil": {
      "city": "Curitiba",
      "lat": -25.4295963,
      "lon": -49.2712724,
      "addresstype": "municipality",
      "population": "1773718"
    },
    "Córdoba, Argentina": {
      "city": "Córdoba",
      "lat": -31.4166867,
      "lon": -64.1834193,
      "addresstype": "city",
      "population": "1655481"
    },
    "Cúcuta, Colombia": {
      "city": "Cúcuta",
      "lat": 7.8971458,
      "lon": -72.5080387,
      "addresstype": "city",
      "population": "777106"
    },
    "Daegu, South Korea": {
      "city": "Daegu",
      "lat": 35.8713,
      "lon": 128.6018,
      "addresstype": "city",
      "population": "2528933"
    },
    "Daejeon, South Korea": {
      "city": "Daejeon",
      "lat": 36.3497007,
      "lon": 127.3849016,
      "addresstype": "city",
      "population": "1537324"
    },
    "Dakar, Senegal": {
      "city": "Dakar",
      "lat": 14.693425,
      "lon": -17.447938,
      "addresstype": "city",
      "population": "2396800"
    },
    "Dalry, Scotland": {
      "city": "Dalry",
      "lat": 55.9423998,
      "lon": -3.2218312,
      "addresstype": "suburb",
      "population": null
    },
    "Dammam, Saudi Arabia": {
      "city": "Dammam",
      "lat": 26.4367824,
      "lon": 50.1039991,
      "addresstype": "city",
      "population": "903312"
    },
    "Dandenong, Australia": {
      "city": "Dandenong",
      "lat": -37.98749,
      "lon": 145.2147923,
      "addresstype": "suburb",
      "population": "30127"
    },
    "Darwin, Australia": {
      "city": "Darwin",
      "lat": -12.46044,
      "lon": 130.8410469,
      "addresstype": "city",
      "population": "122207"
    },
    "Dennilton, South Africa": {
      "city": "Dennilton",
      "lat": -25.2655556,
      "lon": 29.1688889,
      "addresstype": "suburb",
      "population": null
    },
    "Desouk, Egypt": {
      "city": "Desouk",
      "lat": 31.128233,
      "lon": 30.646198,
      "addresstype": "city",
      "population": "135336"
    },
    "Diouloulou, Senegal": {
      "city": "Diouloulou",
      "lat": 13.0482815,
      "lon": -16.598754,
      "addresstype": "town",
      "population": null
    },
    "Diyala Governorate, Iraq": {
      "city": "Diyala Governorate",
      "lat": 34.0228719,
      "lon": 45.1046224,
      "addresstype": "state",
      "population": null
    },
    "Djibonker, Senegal": {
      "city": "Djibonker",
      "lat": 12.5272,
      "lon": -16.3518,
      "addresstype": "override"
    },
    "Doboj, Bosnia and Herzegovina": {
      "city": "Doboj",
      "lat": 44.7324559,
      "lon": 18.0850157,
      "addresstype": "city",
      "population": "25132"
    },
    "Dock Sud, Argentina": {
      "city": "Dock Sud",
      "lat": -34.6522029,
      "lon": -58.3470596,
      "addresstype": "town",
      "population": "35897"
    },
    "Doha, Qatar": {
      "city": "Doha",
      "lat": 25.2856329,
      "lon": 51.5264162,
      "addresstype": "city",
      "population": "1312947"
    },
    "Dolní Němčí, Czech Republic": {
      "city": "Dolní Němčí",
      "lat": 48.9684218,
      "lon": 17.5853622,
      "addresstype": "municipality",
      "population": "3047"
    },
    "Don Benito, Spain": {
      "city": "Don Benito",
      "lat": 38.9540269,
      "lon": -5.8619466,
      "addresstype": "town",
      "population": "38009"
    },
    "Dornbirn, Austria": {
      "city": "Dornbirn",
      "lat": 47.4136351,
      "lon": 9.7423762,
      "addresstype": "town",
      "population": "51222"
    },
    "Douglas, Isle of Man": {
      "city": "Douglas",
      "lat": 54.149774,
      "lon": -4.4779021,
      "addresstype": "city",
      "population": "26218"
    },
    "Drammen, Norway": {
      "city": "Drammen",
      "lat": 59.6964936,
      "lon": 10.175642,
      "addresstype": "municipality",
      "population": "105452"
    },
    "Drongen, Belgium": {
      "city": "Drongen",
      "lat": 51.0504639,
      "lon": 3.6639157,
      "addresstype": "village",
      "population": "12905"
    },
    "Dumfries, Scotland": {
      "city": "Dumfries",
      "lat": 55.0691831,
      "lon": -3.6106856,
      "addresstype": "town",
      "population": "39080"
    },
    "Durban, South Africa": {
      "city": "Durban",
      "lat": -29.861825,
      "lon": 31.009909,
      "addresstype": "city",
      "population": "3442361"
    },
    "Décines-Charpieu, France": {
      "city": "Décines-Charpieu",
      "lat": 45.773606,
      "lon": 4.9633314,
      "addresstype": "town",
      "population": "29731"
    },
    "Düsseldorf, Germany": {
      "city": "Düsseldorf",
      "lat": 51.2254018,
      "lon": 6.7763137,
      "addresstype": "city",
      "population": "653253"
    },
    "Ealing, England": {
      "city": "Ealing",
      "lat": 51.5126553,
      "lon": -0.3051952,
      "addresstype": "town",
      "population": "113777"
    },
    "Edelira, Paraguay": {
      "city": "Edelira",
      "lat": -26.767587,
      "lon": -55.2780964,
      "addresstype": "town",
      "population": null
    },
    "Edinburgh, Scotland": {
      "city": "Edinburgh",
      "lat": 55.9533456,
      "lon": -3.1883749,
      "addresstype": "city",
      "population": "488050"
    },
    "Ehime Prefecture, Japan": {
      "city": "Ehime Prefecture",
      "lat": 33.6013646,
      "lon": 132.8185275,
      "addresstype": "province",
      "population": null
    },
    "Eibar, Spain": {
      "city": "Eibar",
      "lat": 43.1842839,
      "lon": -2.4732748,
      "addresstype": "town",
      "population": "27464"
    },
    "Eindhoven, Netherlands": {
      "city": "Eindhoven",
      "lat": 51.4485569,
      "lon": 5.4501225,
      "addresstype": "municipality",
      "population": "243730"
    },
    "Eisenstadt, Austria": {
      "city": "Eisenstadt",
      "lat": 47.8454821,
      "lon": 16.5249288,
      "addresstype": "town",
      "population": "9243"
    },
    "El Cerrito, Colombia": {
      "city": "El Cerrito",
      "lat": 3.6829185,
      "lon": -76.3071487,
      "addresstype": "town",
      "population": "56470"
    },
    "El Mahalla El Kubra, Egypt": {
      "city": "El Mahalla El Kubra",
      "lat": 30.9723517,
      "lon": 31.1683002,
      "addresstype": "town",
      "population": "431052"
    },
    "El Milia, Algeria": {
      "city": "El Milia",
      "lat": 36.7514104,
      "lon": 6.2744614,
      "addresstype": "town",
      "population": "78087"
    },
    "El Molino, Colombia": {
      "city": "El Molino",
      "lat": 10.6523076,
      "lon": -72.9215565,
      "addresstype": "town",
      "population": "7185"
    },
    "El Paso, United States": {
      "city": "El Paso",
      "lat": 31.7601001,
      "lon": -106.4870476,
      "addresstype": "city",
      "population": "678815"
    },
    "Eloy Alfaro Canton, Ecuador": {
      "city": "Eloy Alfaro Canton",
      "lat": -1.6687274,
      "lon": -78.7402985,
      "addresstype": "hamlet",
      "population": null
    },
    "Embalse, Argentina": {
      "city": "Embalse",
      "lat": -32.2067571,
      "lon": -64.4006283,
      "addresstype": "village",
      "population": "9660"
    },
    "Emmen, Netherlands": {
      "city": "Emmen",
      "lat": 52.7528662,
      "lon": 6.9525135,
      "addresstype": "municipality",
      "population": "108765"
    },
    "Empalme Olmos, Uruguay": {
      "city": "Empalme Olmos",
      "lat": -34.6954579,
      "lon": -55.8948676,
      "addresstype": "town",
      "population": "4921"
    },
    "Ennenda, Switzerland": {
      "city": "Ennenda",
      "lat": 47.033828,
      "lon": 9.0779218,
      "addresstype": "village",
      "population": "2726"
    },
    "Erbil, Iraq": {
      "city": "Erbil",
      "lat": 36.1911744,
      "lon": 44.0094145,
      "addresstype": "city",
      "population": "1713461"
    },
    "Eshtehard, Iran": {
      "city": "Eshtehard",
      "lat": 35.7234469,
      "lon": 50.3670608,
      "addresstype": "town",
      "population": "29993"
    },
    "Esmeraldas, Ecuador": {
      "city": "Esmeraldas",
      "lat": 0.9668153,
      "lon": -79.6523847,
      "addresstype": "city",
      "population": "95216"
    },
    "Esplugues de Llobregat, Spain": {
      "city": "Esplugues de Llobregat",
      "lat": 41.3778094,
      "lon": 2.0886257,
      "addresstype": "town",
      "population": "48424"
    },
    "Essen, Germany": {
      "city": "Essen",
      "lat": 51.4582235,
      "lon": 7.0158171,
      "addresstype": "city",
      "population": "569884"
    },
    "Estanyol, Spain": {
      "city": "Estanyol",
      "lat": 41.9411518,
      "lon": 2.7406459,
      "addresstype": "hamlet",
      "population": "187"
    },
    "Falkenberg, Sweden": {
      "city": "Falkenberg",
      "lat": 56.904894,
      "lon": 12.4912926,
      "addresstype": "town",
      "population": "20035"
    },
    "Famaillá, Argentina": {
      "city": "Famaillá",
      "lat": -27.054364,
      "lon": -65.4020439,
      "addresstype": "town",
      "population": "22928"
    },
    "Faro, Portugal": {
      "city": "Faro",
      "lat": 37.0162944,
      "lon": -7.935182,
      "addresstype": "city",
      "population": "67650"
    },
    "Fetakgomo Local Municipality, South Africa": {
      "city": "Fetakgomo Local Municipality",
      "lat": -24.41531,
      "lon": 29.8550226,
      "addresstype": "city",
      "population": null,
      "actualCityName": "Fetakgomo Local"
    },
    "Fetakgomo Local, South Africa": {
      "city": "Fetakgomo Local",
      "lat": -24.41531,
      "lon": 29.8550226,
      "addresstype": "city",
      "population": null
    },
    "Fez, Morocco": {
      "city": "Fez",
      "lat": 34.0346534,
      "lon": -5.0161926,
      "addresstype": "city",
      "population": "1167842"
    },
    "Fidenza, Italy": {
      "city": "Fidenza",
      "lat": 44.866522,
      "lon": 10.0611939,
      "addresstype": "town",
      "population": "26770"
    },
    "Flekkefjord Municipality, Norway": {
      "city": "Flekkefjord Municipality",
      "lat": 58.2949357,
      "lon": 6.6129626,
      "addresstype": "municipality",
      "population": "9329",
      "actualCityName": "Flekkefjord"
    },
    "Flekkefjord, Norway": {
      "city": "Flekkefjord",
      "lat": 58.2949357,
      "lon": 6.6129626,
      "addresstype": "municipality",
      "population": "9329"
    },
    "Florida, United States": {
      "city": "Florida",
      "lat": 27.7567667,
      "lon": -81.4639835,
      "addresstype": "state",
      "population": "21538187"
    },
    "Foios, Spain": {
      "city": "Foios",
      "lat": 39.5381541,
      "lon": -0.3561396,
      "addresstype": "village",
      "population": "7987"
    },
    "Fort Lauderdale, United States": {
      "city": "Fort Lauderdale",
      "lat": 26.1223084,
      "lon": -80.1433786,
      "addresstype": "city",
      "population": "165521"
    },
    "Frankfurt, Germany": {
      "city": "Frankfurt",
      "lat": 50.1106444,
      "lon": 8.6820917,
      "addresstype": "city",
      "population": "756021"
    },
    "Freetown, Sierra Leone": {
      "city": "Freetown",
      "lat": 8.479004,
      "lon": -13.26795,
      "addresstype": "city",
      "population": "951000"
    },
    "Fresno, United States": {
      "city": "Fresno",
      "lat": 36.7394421,
      "lon": -119.78483,
      "addresstype": "city",
      "population": "520052"
    },
    "Fribourg, Switzerland": {
      "city": "Fribourg",
      "lat": 46.8055656,
      "lon": 7.1612669,
      "addresstype": "town",
      "population": "37485"
    },
    "Fuerte Apache, Argentina": {
      "city": "Fuerte Apache",
      "lat": -34.633603,
      "lon": -58.5426528,
      "addresstype": "override"
    },
    "Fukuoka Prefecture, Japan": {
      "city": "Fukuoka Prefecture",
      "lat": 33.6251241,
      "lon": 130.6180016,
      "addresstype": "province",
      "population": "5000000"
    },
    "Funchal, Portugal": {
      "city": "Funchal",
      "lat": 32.6496497,
      "lon": -16.9086783,
      "addresstype": "city",
      "population": "105795"
    },
    "Gama, Brazil": {
      "city": "Gama",
      "lat": -16.0170857,
      "lon": -48.0653054,
      "addresstype": "city",
      "population": "137331"
    },
    "Geldrop, Netherlands": {
      "city": "Geldrop",
      "lat": 51.4226684,
      "lon": 5.5607546,
      "addresstype": "town",
      "population": "28767"
    },
    "Gelsenkirchen, Germany": {
      "city": "Gelsenkirchen",
      "lat": 51.5110321,
      "lon": 7.0960124,
      "addresstype": "city",
      "population": "270107"
    },
    "General San Martín, Argentina": {
      "city": "General San Martín",
      "lat": -22.8343235,
      "lon": -63.7060586,
      "addresstype": "state_district",
      "population": null
    },
    "Geneva, Switzerland": {
      "city": "Geneva",
      "lat": 46.2017559,
      "lon": 6.1466014,
      "addresstype": "city",
      "population": "191557"
    },
    "Gifu Prefecture, Japan": {
      "city": "Gifu Prefecture",
      "lat": 35.7867449,
      "lon": 137.0460777,
      "addresstype": "province",
      "population": null
    },
    "Gimje, South Korea": {
      "city": "Gimje",
      "lat": 35.803815,
      "lon": 126.880557,
      "addresstype": "city",
      "population": "87782"
    },
    "Gimpo, South Korea": {
      "city": "Gimpo",
      "lat": 37.6155683,
      "lon": 126.7157798,
      "addresstype": "city",
      "population": "392092"
    },
    "Giza, Egypt": {
      "city": "Giza",
      "lat": 29.9870753,
      "lon": 31.2118063,
      "addresstype": "city",
      "population": "2681863"
    },
    "Glasgow, Scotland": {
      "city": "Glasgow",
      "lat": 55.861155,
      "lon": -4.2501687,
      "addresstype": "city",
      "population": "606340"
    },
    "Gold Coast, Australia": {
      "city": "Gold Coast",
      "lat": -28.0023731,
      "lon": 153.4145987,
      "addresstype": "city",
      "population": "607665"
    },
    "Gonbad-e Kavus, Iran": {
      "city": "Gonbad-e Kavus",
      "lat": 37.2492965,
      "lon": 55.1659018,
      "addresstype": "city",
      "population": "151910"
    },
    "Gothenburg, Sweden": {
      "city": "Gothenburg",
      "lat": 57.7072326,
      "lon": 11.9670171,
      "addresstype": "city",
      "population": "607882"
    },
    "Gqeberha, South Africa": {
      "city": "Gqeberha",
      "lat": -33.9618598,
      "lon": 25.6186731,
      "addresstype": "city",
      "population": "1050000"
    },
    "Grand-Béréby, Ivory Coast": {
      "city": "Grand-Béréby",
      "lat": 4.6507586,
      "lon": -6.9247355,
      "addresstype": "town",
      "population": "129340"
    },
    "Grand-Goâve, Haiti": {
      "city": "Grand-Goâve",
      "lat": 18.4282512,
      "lon": -72.7681957,
      "addresstype": "town",
      "population": "49288"
    },
    "Graz, Austria": {
      "city": "Graz",
      "lat": 47.0708678,
      "lon": 15.4382786,
      "addresstype": "city",
      "population": "331359"
    },
    "Greenfield Park, Canada": {
      "city": "Greenfield Park",
      "lat": 45.4926624,
      "lon": -73.4870499,
      "addresstype": "suburb",
      "population": null
    },
    "Greenwich, England": {
      "city": "Greenwich",
      "lat": 51.4820845,
      "lon": -0.0045417,
      "addresstype": "town",
      "population": "285000"
    },
    "Grenchen, Switzerland": {
      "city": "Grenchen",
      "lat": 47.1911495,
      "lon": 7.3967199,
      "addresstype": "town",
      "population": "16401"
    },
    "Grimbergen, Belgium": {
      "city": "Grimbergen",
      "lat": 50.9457843,
      "lon": 4.3890967,
      "addresstype": "municipality",
      "population": null
    },
    "Grimstad, Norway": {
      "city": "Grimstad",
      "lat": 58.2839967,
      "lon": 8.7128291,
      "addresstype": "municipality",
      "population": "25419"
    },
    "Groningen, Netherlands": {
      "city": "Groningen",
      "lat": 53.2190652,
      "lon": 6.5680077,
      "addresstype": "city",
      "population": "201242"
    },
    "Guachené, Colombia": {
      "city": "Guachené",
      "lat": 3.1323331,
      "lon": -76.3916018,
      "addresstype": "town",
      "population": "19671"
    },
    "Guadalajara, Mexico": {
      "city": "Guadalajara",
      "lat": 20.6720375,
      "lon": -103.338396,
      "addresstype": "city",
      "population": "1385629"
    },
    "Gualeguay, Argentina": {
      "city": "Gualeguay",
      "lat": -33.1504259,
      "lon": -59.3106789,
      "addresstype": "town",
      "population": "43009"
    },
    "Guarulhos, Brazil": {
      "city": "Guarulhos",
      "lat": -23.4675941,
      "lon": -46.5277704,
      "addresstype": "municipality",
      "population": "1291771"
    },
    "Guayaquil, Ecuador": {
      "city": "Guayaquil",
      "lat": -2.1900572,
      "lon": -79.8868669,
      "addresstype": "city",
      "population": "3500000"
    },
    "Guédiawaye, Senegal": {
      "city": "Guédiawaye",
      "lat": 14.7771207,
      "lon": -17.390071,
      "addresstype": "department",
      "population": "286989"
    },
    "Haarlem, Netherlands": {
      "city": "Haarlem",
      "lat": 52.3837281,
      "lon": 4.6435679,
      "addresstype": "city_district",
      "population": null
    },
    "Halden, Norway": {
      "city": "Halden",
      "lat": 59.0680555,
      "lon": 11.537191,
      "addresstype": "municipality",
      "population": "32038"
    },
    "Halesowen, England": {
      "city": "Halesowen",
      "lat": 52.4492074,
      "lon": -2.0514646,
      "addresstype": "town",
      "population": null
    },
    "Halle, Belgium": {
      "city": "Halle",
      "lat": 50.7360524,
      "lon": 4.2374349,
      "addresstype": "town",
      "population": null
    },
    "Halmstad, Sweden": {
      "city": "Halmstad",
      "lat": 56.6739826,
      "lon": 12.8574827,
      "addresstype": "city",
      "population": "55688"
    },
    "Hamamatsu, Japan": {
      "city": "Hamamatsu",
      "lat": 34.7109786,
      "lon": 137.7259431,
      "addresstype": "city",
      "population": "797033"
    },
    "Hamburg, Germany": {
      "city": "Hamburg",
      "lat": 53.5501721,
      "lon": 10.0013165,
      "addresstype": "city",
      "population": "1862565"
    },
    "Hamilton, New Zealand": {
      "city": "Hamilton",
      "lat": -37.7878809,
      "lon": 175.281788,
      "addresstype": "city",
      "population": "169500"
    },
    "Hamilton, Scotland": {
      "city": "Hamilton",
      "lat": 55.7759095,
      "lon": -4.033442,
      "addresstype": "town",
      "population": "53100"
    },
    "Hamm, Germany": {
      "city": "Hamm",
      "lat": 50.0165178,
      "lon": 6.4184628,
      "addresstype": "village",
      "population": "18"
    },
    "Hammerfest, Norway": {
      "city": "Hammerfest",
      "lat": 70.6413392,
      "lon": 23.8360801,
      "addresstype": "municipality",
      "population": "11324"
    },
    "Hanover, Germany": {
      "city": "Hanover",
      "lat": 52.3744779,
      "lon": 9.7385532,
      "addresstype": "city",
      "population": "555372"
    },
    "Hareid, Norway": {
      "city": "Hareid",
      "lat": 62.3598311,
      "lon": 6.0305106,
      "addresstype": "municipality",
      "population": "5320"
    },
    "Haro, Spain": {
      "city": "Haro",
      "lat": 42.5768922,
      "lon": -2.8466768,
      "addresstype": "town",
      "population": "12153"
    },
    "Harold Wood, England": {
      "city": "Harold Wood",
      "lat": 51.5936326,
      "lon": 0.2310497,
      "addresstype": "suburb",
      "population": null
    },
    "Havlíčkův Brod, Czech Republic": {
      "city": "Havlíčkův Brod",
      "lat": 49.606942,
      "lon": 15.5795748,
      "addresstype": "town",
      "population": "23534"
    },
    "Hawija, Iraq": {
      "city": "Hawija",
      "lat": 35.3233218,
      "lon": 43.7824093,
      "addresstype": "town",
      "population": null
    },
    "Hayama, Japan": {
      "city": "Hayama",
      "lat": 35.2719497,
      "lon": 139.5860744,
      "addresstype": "town",
      "population": "31986"
    },
    "Heeswijk-Dinther, Netherlands": {
      "city": "Heeswijk-Dinther",
      "lat": 51.6493848,
      "lon": 5.4739859,
      "addresstype": "village",
      "population": "8425"
    },
    "Hellmonsödt, Austria": {
      "city": "Hellmonsödt",
      "lat": 48.4317006,
      "lon": 14.3000344,
      "addresstype": "village",
      "population": "2087"
    },
    "Helmond, Netherlands": {
      "city": "Helmond",
      "lat": 51.4736023,
      "lon": 5.6670321,
      "addresstype": "municipality",
      "population": "92423"
    },
    "Helwan, Egypt": {
      "city": "Helwan",
      "lat": 29.8500001,
      "lon": 31.333333,
      "addresstype": "city",
      "population": "643327"
    },
    "Hermosillo, Mexico": {
      "city": "Hermosillo",
      "lat": 29.0948207,
      "lon": -110.9692202,
      "addresstype": "city",
      "population": "855563"
    },
    "Heroica Cárdenas, Mexico": {
      "city": "Heroica Cárdenas",
      "lat": 17.9886831,
      "lon": -93.3767428,
      "addresstype": "city",
      "population": "80454"
    },
    "Hershey, United States": {
      "city": "Hershey",
      "lat": 40.2854881,
      "lon": -76.6506001,
      "addresstype": "town",
      "population": "14682"
    },
    "Hluhluwe, South Africa": {
      "city": "Hluhluwe",
      "lat": -28.0175,
      "lon": 32.269167,
      "addresstype": "town",
      "population": null
    },
    "Hoboken, Belgium": {
      "city": "Hoboken",
      "lat": 51.1794946,
      "lon": 4.3617847,
      "addresstype": "borough",
      "population": null
    },
    "Hoorn, Netherlands": {
      "city": "Hoorn",
      "lat": 52.653272,
      "lon": 5.0735802,
      "addresstype": "town",
      "population": "73261"
    },
    "Horn, Austria": {
      "city": "Horn",
      "lat": 48.6636596,
      "lon": 15.6563147,
      "addresstype": "town",
      "population": "6632"
    },
    "Hradec Králové, Czech Republic": {
      "city": "Hradec Králové",
      "lat": 50.2092113,
      "lon": 15.8327512,
      "addresstype": "city",
      "population": "90457"
    },
    "Huizen, Netherlands": {
      "city": "Huizen",
      "lat": 52.2958122,
      "lon": 5.2567209,
      "addresstype": "town",
      "population": "41273"
    },
    "Hwaseong, South Korea": {
      "city": "Hwaseong",
      "lat": 37.1994653,
      "lon": 126.8312632,
      "addresstype": "city",
      "population": "696587"
    },
    "Hyllie, Sweden": {
      "city": "Hyllie",
      "lat": 55.5694418,
      "lon": 12.9771229,
      "addresstype": "suburb",
      "population": null
    },
    "Hägerstens församling, Sweden": {
      "city": "Hägerstens församling",
      "lat": 59.3039831,
      "lon": 17.9671408,
      "addresstype": "override"
    },
    "Ibarra, Ecuador": {
      "city": "Ibarra",
      "lat": 0.3520459,
      "lon": -78.1199716,
      "addresstype": "municipality",
      "population": "108666"
    },
    "Imotski, Croatia": {
      "city": "Imotski",
      "lat": 43.4471115,
      "lon": 17.2179703,
      "addresstype": "town",
      "population": "4008"
    },
    "Incheon, South Korea": {
      "city": "Incheon",
      "lat": 37.456,
      "lon": 126.7052,
      "addresstype": "city",
      "population": "2870545"
    },
    "Inverness, Scotland": {
      "city": "Inverness",
      "lat": 57.4790124,
      "lon": -4.225739,
      "addresstype": "city",
      "population": "47060"
    },
    "Irbid, Jordan": {
      "city": "Irbid",
      "lat": 32.5556091,
      "lon": 35.8493023,
      "addresstype": "city",
      "population": "292000"
    },
    "Irvine, Scotland": {
      "city": "Irvine",
      "lat": 55.6131309,
      "lon": -4.6696399,
      "addresstype": "town",
      "population": "33698"
    },
    "Ismailia, Egypt": {
      "city": "Ismailia",
      "lat": 30.6043775,
      "lon": 32.2770825,
      "addresstype": "city",
      "population": "352000"
    },
    "Istmina, Colombia": {
      "city": "Istmina",
      "lat": 5.1593099,
      "lon": -76.685528,
      "addresstype": "town",
      "population": "30742"
    },
    "Itagüí, Colombia": {
      "city": "Itagüí",
      "lat": 6.1724352,
      "lon": -75.6093254,
      "addresstype": "town",
      "population": "239056"
    },
    "Itapitanga, Brazil": {
      "city": "Itapitanga",
      "lat": -14.4232006,
      "lon": -39.5649322,
      "addresstype": "municipality",
      "population": "10279"
    },
    "Ivančice, Czech Republic": {
      "city": "Ivančice",
      "lat": 49.1015881,
      "lon": 16.3776051,
      "addresstype": "town",
      "population": "9538"
    },
    "Ivry-sur-Seine, France": {
      "city": "Ivry-sur-Seine",
      "lat": 48.8122302,
      "lon": 2.3872525,
      "addresstype": "town",
      "population": "64001"
    },
    "Izumi, Japan": {
      "city": "Izumi",
      "lat": 34.4831932,
      "lon": 135.4232139,
      "addresstype": "city",
      "population": "185913"
    },
    "Jarkurghon, Uzbekistan": {
      "city": "Jarkurghon",
      "lat": 37.5091604,
      "lon": 67.4206492,
      "addresstype": "override"
    },
    "Jazan, Saudi Arabia": {
      "city": "Jazan",
      "lat": 16.894719,
      "lon": 42.5579758,
      "addresstype": "city",
      "population": "127743"
    },
    "Jeddah, Saudi Arabia": {
      "city": "Jeddah",
      "lat": 21.5504432,
      "lon": 39.1742363,
      "addresstype": "city",
      "population": "3430697"
    },
    "Jeonju, South Korea": {
      "city": "Jeonju",
      "lat": 35.8237631,
      "lon": 127.1472805,
      "addresstype": "city",
      "population": "653387"
    },
    "Jesenice, Slovenia": {
      "city": "Jesenice",
      "lat": 46.4459152,
      "lon": 14.0663103,
      "addresstype": "municipality",
      "population": null
    },
    "Jizzakh, Uzbekistan": {
      "city": "Jizzakh",
      "lat": 40.1331797,
      "lon": 67.8234081,
      "addresstype": "city",
      "population": "165000"
    },
    "Johannesburg, South Africa": {
      "city": "Johannesburg",
      "lat": -26.205,
      "lon": 28.049722,
      "addresstype": "city",
      "population": "4434827"
    },
    "João Pessoa, Brazil": {
      "city": "João Pessoa",
      "lat": -7.1215981,
      "lon": -34.882028,
      "addresstype": "municipality",
      "population": "833932"
    },
    "Judenburg, Austria": {
      "city": "Judenburg",
      "lat": 47.1694082,
      "lon": 14.6601079,
      "addresstype": "town",
      "population": "9514"
    },
    "Jönköping, Sweden": {
      "city": "Jönköping",
      "lat": 57.7825634,
      "lon": 14.165719,
      "addresstype": "city",
      "population": "84423"
    },
    "Kafr el-Dawwar, Egypt": {
      "city": "Kafr el-Dawwar",
      "lat": 31.1328304,
      "lon": 30.1335334,
      "addresstype": "override"
    },
    "Kafr el-Sheikh, Egypt": {
      "city": "Kafr el-Sheikh",
      "lat": 31.3814765,
      "lon": 30.8513566,
      "addresstype": "state",
      "population": null
    },
    "Kakegawa, Japan": {
      "city": "Kakegawa",
      "lat": 34.7688351,
      "lon": 137.9986433,
      "addresstype": "city",
      "population": "114818"
    },
    "Kakuma, Kenya": {
      "city": "Kakuma",
      "lat": 3.706286,
      "lon": 34.873489,
      "addresstype": "town",
      "population": null
    },
    "Kanagawa Prefecture, Japan": {
      "city": "Kanagawa Prefecture",
      "lat": 35.4342935,
      "lon": 139.374753,
      "addresstype": "province",
      "population": null
    },
    "Kananga, DR Congo": {
      "city": "Kananga",
      "lat": -5.8951725,
      "lon": 22.408589,
      "addresstype": "city",
      "population": null
    },
    "Karabük, Turkey": {
      "city": "Karabük",
      "lat": 41.1955402,
      "lon": 32.6231154,
      "addresstype": "city",
      "population": "123309"
    },
    "Karamürsel district, Turkey": {
      "city": "Karamürsel district",
      "lat": 40.6912501,
      "lon": 29.6165859,
      "addresstype": "town",
      "population": null,
      "actualCityName": "Karamürsel"
    },
    "Karamürsel, Turkey": {
      "city": "Karamürsel",
      "lat": 40.6912501,
      "lon": 29.6165859,
      "addresstype": "town",
      "population": null
    },
    "Karlovy Vary, Czech Republic": {
      "city": "Karlovy Vary",
      "lat": 50.2306216,
      "lon": 12.8701437,
      "addresstype": "city",
      "population": "52065"
    },
    "Karlsruhe, Germany": {
      "city": "Karlsruhe",
      "lat": 49.0068705,
      "lon": 8.4034195,
      "addresstype": "city",
      "population": "283959"
    },
    "Kartal, Turkey": {
      "city": "Kartal",
      "lat": 40.8885036,
      "lon": 29.18589,
      "addresstype": "town",
      "population": "475042"
    },
    "Kashan, Iran": {
      "city": "Kashan",
      "lat": 33.9876533,
      "lon": 51.4428856,
      "addresstype": "city",
      "population": "275904"
    },
    "Kawasaki, Japan": {
      "city": "Kawasaki",
      "lat": 35.5306639,
      "lon": 139.7037668,
      "addresstype": "city",
      "population": "1538262"
    },
    "Kempton Park, South Africa": {
      "city": "Kempton Park",
      "lat": -26.0964372,
      "lon": 28.2336325,
      "addresstype": "town",
      "population": null
    },
    "Kerkrade, Netherlands": {
      "city": "Kerkrade",
      "lat": 50.8749089,
      "lon": 6.0593853,
      "addresstype": "municipality",
      "population": "45749"
    },
    "Khartoum, Sudan": {
      "city": "Khartoum",
      "lat": 15.5635972,
      "lon": 32.5349123,
      "addresstype": "city",
      "population": "2682431"
    },
    "Khobar, Saudi Arabia": {
      "city": "Khobar",
      "lat": 26.3039999,
      "lon": 50.1960237,
      "addresstype": "city",
      "population": "219679"
    },
    "Kigoma, Tanzania": {
      "city": "Kigoma",
      "lat": -4.877862,
      "lon": 29.6296319,
      "addresstype": "city",
      "population": null
    },
    "Kilmarnock, Scotland": {
      "city": "Kilmarnock",
      "lat": 55.6100589,
      "lon": -4.4964652,
      "addresstype": "town",
      "population": "45000"
    },
    "Kingston upon Thames, England": {
      "city": "Kingston upon Thames",
      "lat": 51.4096275,
      "lon": -0.3062621,
      "addresstype": "town",
      "population": "43013"
    },
    "Kinshasa, DR Congo": {
      "city": "Kinshasa",
      "lat": -4.32171,
      "lon": 15.3122511,
      "addresstype": "city",
      "population": "17032322"
    },
    "Kirchbichl, Austria": {
      "city": "Kirchbichl",
      "lat": 47.5111617,
      "lon": 12.0859208,
      "addresstype": "village",
      "population": "1233"
    },
    "Kirkuk, Iraq": {
      "city": "Kirkuk",
      "lat": 35.4719308,
      "lon": 44.3953896,
      "addresstype": "city",
      "population": "850787"
    },
    "Kirriemuir, Scotland": {
      "city": "Kirriemuir",
      "lat": 56.6731057,
      "lon": -3.0043927,
      "addresstype": "town",
      "population": "6012"
    },
    "Kisangani, DR Congo": {
      "city": "Kisangani",
      "lat": 0.5184021,
      "lon": 25.2057292,
      "addresstype": "city",
      "population": null
    },
    "Kista, Sweden": {
      "city": "Kista",
      "lat": 59.403311,
      "lon": 17.9442849,
      "addresstype": "suburb",
      "population": null
    },
    "Klatovy, Czech Republic": {
      "city": "Klatovy",
      "lat": 49.3951183,
      "lon": 13.2935954,
      "addresstype": "town",
      "population": "22433"
    },
    "Knin, Croatia": {
      "city": "Knin",
      "lat": 44.04085,
      "lon": 16.199433,
      "addresstype": "town",
      "population": "11633"
    },
    "Knokke-Heist, Belgium": {
      "city": "Knokke-Heist",
      "lat": 51.3433866,
      "lon": 3.2884738,
      "addresstype": "town",
      "population": "33556"
    },
    "Kokand, Uzbekistan": {
      "city": "Kokand",
      "lat": 40.5408463,
      "lon": 70.9473889,
      "addresstype": "city",
      "population": "264100"
    },
    "Kongsvinger Municipality, Norway": {
      "city": "Kongsvinger Municipality",
      "lat": 60.1899109,
      "lon": 12.2160367,
      "addresstype": "municipality",
      "population": "18109",
      "actualCityName": "Kongsvinger"
    },
    "Kongsvinger, Norway": {
      "city": "Kongsvinger",
      "lat": 60.1899109,
      "lon": 12.2160367,
      "addresstype": "municipality",
      "population": "18109"
    },
    "Koppigen, Switzerland": {
      "city": "Koppigen",
      "lat": 47.1318304,
      "lon": 7.601523,
      "addresstype": "village",
      "population": "2265"
    },
    "Koson, Uzbekistan": {
      "city": "Koson",
      "lat": 39.0406833,
      "lon": 65.5858969,
      "addresstype": "town",
      "population": "59300"
    },
    "Kosonsoy, Uzbekistan": {
      "city": "Kosonsoy",
      "lat": 41.2528658,
      "lon": 71.5446327,
      "addresstype": "town",
      "population": null
    },
    "Koumassi, Ivory Coast": {
      "city": "Koumassi",
      "lat": 5.2927045,
      "lon": -3.9585801,
      "addresstype": "municipality",
      "population": "317562"
    },
    "Krumbach, Germany": {
      "city": "Krumbach",
      "lat": 48.2430587,
      "lon": 10.3631004,
      "addresstype": "town",
      "population": "12729"
    },
    "Kuchl, Austria": {
      "city": "Kuchl",
      "lat": 47.6258369,
      "lon": 13.1451024,
      "addresstype": "village",
      "population": "1862"
    },
    "Kumamoto, Japan": {
      "city": "Kumamoto",
      "lat": 32.8033909,
      "lon": 130.7082737,
      "addresstype": "city",
      "population": "738865"
    },
    "Kumasi, Ghana": {
      "city": "Kumasi",
      "lat": 6.6985605,
      "lon": -1.6233086,
      "addresstype": "city",
      "population": "1517000"
    },
    "KwaMashu, South Africa": {
      "city": "KwaMashu",
      "lat": -29.741389,
      "lon": 30.962222,
      "addresstype": "town",
      "population": null
    },
    "Küçükçekmece, Turkey": {
      "city": "Küçükçekmece",
      "lat": 40.9918737,
      "lon": 28.7711956,
      "addresstype": "town",
      "population": "792030"
    },
    "La Jagua de Ibirico, Colombia": {
      "city": "La Jagua de Ibirico",
      "lat": 9.5613975,
      "lon": -73.3328147,
      "addresstype": "town",
      "population": "21386"
    },
    "La Plata, Argentina": {
      "city": "La Plata",
      "lat": -34.9206797,
      "lon": -57.9537638,
      "addresstype": "city",
      "population": "193144"
    },
    "La Roche-sur-Yon, France": {
      "city": "La Roche-sur-Yon",
      "lat": 46.6705578,
      "lon": -1.4269591,
      "addresstype": "town",
      "population": "54952"
    },
    "La Victoria, Colombia": {
      "city": "La Victoria",
      "lat": 5.5152589,
      "lon": -74.2354892,
      "addresstype": "county",
      "population": null
    },
    "Ladysmith, South Africa": {
      "city": "Ladysmith",
      "lat": -28.5587291,
      "lon": 29.7825044,
      "addresstype": "city",
      "population": "64855"
    },
    "Lagny-sur-Marne, France": {
      "city": "Lagny-sur-Marne",
      "lat": 48.8773018,
      "lon": 2.7056056,
      "addresstype": "town",
      "population": "21191"
    },
    "Lake Grove, United States": {
      "city": "Lake Grove",
      "lat": 40.8528761,
      "lon": -73.1151102,
      "addresstype": "village",
      "population": "11072"
    },
    "Lancaster, England": {
      "city": "Lancaster",
      "lat": 54.0488219,
      "lon": -2.8013499,
      "addresstype": "city",
      "population": "46000"
    },
    "Landsberg am Lech, Germany": {
      "city": "Landsberg am Lech",
      "lat": 48.0497474,
      "lon": 10.8768728,
      "addresstype": "town",
      "population": "27140"
    },
    "Landshut, Germany": {
      "city": "Landshut",
      "lat": 48.536217,
      "lon": 12.1516551,
      "addresstype": "town",
      "population": "73000"
    },
    "Langhus, Norway": {
      "city": "Langhus",
      "lat": 59.7464396,
      "lon": 10.8366712,
      "addresstype": "village",
      "population": "13000"
    },
    "Langley, Canada": {
      "city": "Langley",
      "lat": 49.1039289,
      "lon": -122.657047,
      "addresstype": "city",
      "population": "28963"
    },
    "Las Palmas de Gran Canaria, Spain": {
      "city": "Las Palmas de Gran Canaria",
      "lat": 28.1288694,
      "lon": -15.4349015,
      "addresstype": "city",
      "population": "384023"
    },
    "Le Mans, France": {
      "city": "Le Mans",
      "lat": 48.0073849,
      "lon": 0.1967849,
      "addresstype": "city",
      "population": "145004"
    },
    "Leamington, Canada": {
      "city": "Leamington",
      "lat": 42.0531385,
      "lon": -82.5997722,
      "addresstype": "town",
      "population": "27595"
    },
    "Leeds, England": {
      "city": "Leeds",
      "lat": 53.7974185,
      "lon": -1.5437941,
      "addresstype": "city",
      "population": "766399"
    },
    "Leicester, England": {
      "city": "Leicester",
      "lat": 52.6362,
      "lon": -1.1331969,
      "addresstype": "city",
      "population": "305700"
    },
    "Leiderdorp, Netherlands": {
      "city": "Leiderdorp",
      "lat": 52.1617952,
      "lon": 4.5340923,
      "addresstype": "town",
      "population": "27056"
    },
    "Leuchars, Scotland": {
      "city": "Leuchars",
      "lat": 56.381411,
      "lon": -2.8838885,
      "addresstype": "town",
      "population": "3060"
    },
    "Leuven, Belgium": {
      "city": "Leuven",
      "lat": 50.879202,
      "lon": 4.7011675,
      "addresstype": "city",
      "population": "102275"
    },
    "Liberec, Czech Republic": {
      "city": "Liberec",
      "lat": 50.7702648,
      "lon": 15.0583947,
      "addresstype": "city",
      "population": "103415"
    },
    "Lilienfeld, Austria": {
      "city": "Lilienfeld",
      "lat": 48.0149797,
      "lon": 15.5966191,
      "addresstype": "town",
      "population": "2.618"
    },
    "Lille, France": {
      "city": "Lille",
      "lat": 50.6365654,
      "lon": 3.0635282,
      "addresstype": "city",
      "population": "236710"
    },
    "Linz, Austria": {
      "city": "Linz",
      "lat": 48.3059078,
      "lon": 14.286198,
      "addresstype": "city",
      "population": "207812"
    },
    "Linzolo, Congo": {
      "city": "Linzolo",
      "lat": -4.413723,
      "lon": 15.1068663,
      "addresstype": "village",
      "population": null
    },
    "Lisbon, Portugal": {
      "city": "Lisbon",
      "lat": 38.7077507,
      "lon": -9.1365919,
      "addresstype": "city",
      "population": "545923"
    },
    "Little Elm, United States": {
      "city": "Little Elm",
      "lat": 33.1626194,
      "lon": -96.9375051,
      "addresstype": "town",
      "population": "42504"
    },
    "Liverpool, England": {
      "city": "Liverpool",
      "lat": 53.3933411,
      "lon": -2.9166389,
      "addresstype": "city",
      "population": null
    },
    "Livno, Bosnia and Herzegovina": {
      "city": "Livno",
      "lat": 43.8259136,
      "lon": 17.0042416,
      "addresstype": "town",
      "population": "7927"
    },
    "Liège, Belgium": {
      "city": "Liège",
      "lat": 50.6450944,
      "lon": 5.5736112,
      "addresstype": "city",
      "population": "197013"
    },
    "Ljubljana, Slovenia": {
      "city": "Ljubljana",
      "lat": 46.0500268,
      "lon": 14.5069289,
      "addresstype": "city",
      "population": "285604"
    },
    "Ljubuški, Bosnia and Herzegovina": {
      "city": "Ljubuški",
      "lat": 43.1963022,
      "lon": 17.5447857,
      "addresstype": "town",
      "population": "4023"
    },
    "Logoualé, Ivory Coast": {
      "city": "Logoualé",
      "lat": 7.1074292,
      "lon": -7.5511449,
      "addresstype": "village",
      "population": null
    },
    "London Borough of Newham, England": {
      "city": "London Borough of Newham",
      "lat": 51.5300157,
      "lon": 0.0293091,
      "addresstype": "city_district",
      "population": null
    },
    "London, England": {
      "city": "London",
      "lat": 51.5074456,
      "lon": -0.1277653,
      "addresstype": "city",
      "population": "8908083"
    },
    "Longueuil, Canada": {
      "city": "Longueuil",
      "lat": 45.521906,
      "lon": -73.4644578,
      "addresstype": "city",
      "population": "254483"
    },
    "Los Angeles, United States": {
      "city": "Los Angeles",
      "lat": 34.0536909,
      "lon": -118.242766,
      "addresstype": "city",
      "population": "4030904"
    },
    "Los Palacios y Villafranca, Spain": {
      "city": "Los Palacios y Villafranca",
      "lat": 37.1582119,
      "lon": -5.9244567,
      "addresstype": "town",
      "population": "38778"
    },
    "Lucerne, Switzerland": {
      "city": "Lucerne",
      "lat": 47.052144,
      "lon": 8.3058123,
      "addresstype": "city",
      "population": "81284"
    },
    "Ludwigshafen, Germany": {
      "city": "Ludwigshafen",
      "lat": 49.4704113,
      "lon": 8.4381568,
      "addresstype": "city",
      "population": "163340"
    },
    "Lund, Sweden": {
      "city": "Lund",
      "lat": 55.7029296,
      "lon": 13.1929449,
      "addresstype": "city",
      "population": "82800"
    },
    "Lunel, France": {
      "city": "Lunel",
      "lat": 43.6745265,
      "lon": 4.1348062,
      "addresstype": "town",
      "population": "26185"
    },
    "Lyon, France": {
      "city": "Lyon",
      "lat": 45.7578137,
      "lon": 4.8320114,
      "addresstype": "city",
      "population": "522250"
    },
    "M'Bour, Senegal": {
      "city": "M'Bour",
      "lat": 14.4207396,
      "lon": -16.971484,
      "addresstype": "city",
      "population": null
    },
    "M'Sila, Algeria": {
      "city": "M'Sila",
      "lat": 35.7087096,
      "lon": 4.5371411,
      "addresstype": "city",
      "population": "156647"
    },
    "Maasmechelen, Belgium": {
      "city": "Maasmechelen",
      "lat": 50.9634179,
      "lon": 5.6960212,
      "addresstype": "town",
      "population": null
    },
    "Macclesfield, England": {
      "city": "Macclesfield",
      "lat": 53.2606635,
      "lon": -2.1255158,
      "addresstype": "town",
      "population": null
    },
    "Machala, Ecuador": {
      "city": "Machala",
      "lat": -3.2588565,
      "lon": -79.9588518,
      "addresstype": "municipality",
      "population": "231260"
    },
    "Madrid, Spain": {
      "city": "Madrid",
      "lat": 40.416782,
      "lon": -3.703507,
      "addresstype": "city",
      "population": "3477497"
    },
    "Magüí Payán, Colombia": {
      "city": "Magüí Payán",
      "lat": 1.7665774,
      "lon": -78.1835713,
      "addresstype": "town",
      "population": null
    },
    "Mahshahr, Iran": {
      "city": "Mahshahr",
      "lat": 30.5577268,
      "lon": 49.1997454,
      "addresstype": "town",
      "population": "296271"
    },
    "Maia, Portugal": {
      "city": "Maia",
      "lat": 41.2373456,
      "lon": -8.6299982,
      "addresstype": "municipality",
      "population": "134988"
    },
    "Mainz, Germany": {
      "city": "Mainz",
      "lat": 49.9995205,
      "lon": 8.2736253,
      "addresstype": "city",
      "population": "227277"
    },
    "Malmö, Sweden": {
      "city": "Malmö",
      "lat": 55.6052931,
      "lon": 13.0001566,
      "addresstype": "city",
      "population": "316588"
    },
    "Mampong-Akuapem, Ghana": null,
    "Manchester, England": {
      "city": "Manchester",
      "lat": 53.4424618,
      "lon": -2.2324547,
      "addresstype": "city",
      "population": null
    },
    "Mannheim, Germany": {
      "city": "Mannheim",
      "lat": 49.4892913,
      "lon": 8.4673098,
      "addresstype": "city",
      "population": "310000"
    },
    "Mansoura, Egypt": {
      "city": "Mansoura",
      "lat": 28.0758921,
      "lon": 30.7503674,
      "addresstype": "village",
      "population": null
    },
    "Manta, Ecuador": {
      "city": "Manta",
      "lat": -0.9486443,
      "lon": -80.7190822,
      "addresstype": "city",
      "population": "217553"
    },
    "Mantes-la-Jolie, France": {
      "city": "Mantes-la-Jolie",
      "lat": 48.9891971,
      "lon": 1.7140683,
      "addresstype": "town",
      "population": "44539"
    },
    "Mar del Plata, Argentina": {
      "city": "Mar del Plata",
      "lat": -37.9976168,
      "lon": -57.5482079,
      "addresstype": "city",
      "population": "593337"
    },
    "Maracaná, Paraguay": {
      "city": "Maracaná",
      "lat": -24.1899734,
      "lon": -56.1197791,
      "addresstype": "village",
      "population": null
    },
    "Marseille, France": {
      "city": "Marseille",
      "lat": 43.2963986,
      "lon": 5.3777888,
      "addresstype": "city",
      "population": "873076"
    },
    "Martigues, France": {
      "city": "Martigues",
      "lat": 43.4057279,
      "lon": 5.0548176,
      "addresstype": "town",
      "population": "48568"
    },
    "Martorell, Spain": {
      "city": "Martorell",
      "lat": 41.4743886,
      "lon": 1.9307159,
      "addresstype": "town",
      "population": "28989"
    },
    "Maysan Governorate, Iraq": {
      "city": "Maysan Governorate",
      "lat": 32.0182542,
      "lon": 47.0695957,
      "addresstype": "state",
      "population": null
    },
    "Mbuji-Mayi, DR Congo": {
      "city": "Mbuji-Mayi",
      "lat": -6.1258942,
      "lon": 23.5998111,
      "addresstype": "city",
      "population": "1680991"
    },
    "Meaux, France": {
      "city": "Meaux",
      "lat": 48.9582708,
      "lon": 2.8773541,
      "addresstype": "town",
      "population": "55616"
    },
    "Meckhe, Senegal": {
      "city": "Meckhe",
      "lat": 15.112955,
      "lon": -16.631121,
      "addresstype": "town",
      "population": "30000"
    },
    "Medellín, Colombia": {
      "city": "Medellín",
      "lat": 6.2697324,
      "lon": -75.6025597,
      "addresstype": "city",
      "population": "2486723"
    },
    "Medenine, Tunisia": {
      "city": "Medenine",
      "lat": 33.3434014,
      "lon": 10.4910703,
      "addresstype": "town",
      "population": "71406"
    },
    "Medford, United States": {
      "city": "Medford",
      "lat": 42.4184296,
      "lon": -71.1061639,
      "addresstype": "city",
      "population": "56173"
    },
    "Media, United States": {
      "city": "Media",
      "lat": 39.9167783,
      "lon": -75.387693,
      "addresstype": "town",
      "population": "5682"
    },
    "Medina, Saudi Arabia": {
      "city": "Medina",
      "lat": 24.471153,
      "lon": 39.6111216,
      "addresstype": "city",
      "population": "1100093"
    },
    "Melbourne, Australia": {
      "city": "Melbourne",
      "lat": -37.8142454,
      "lon": 144.9631732,
      "addresstype": "city",
      "population": "5031195"
    },
    "Melilla, Spain": {
      "city": "Melilla",
      "lat": 35.2919028,
      "lon": -2.9407146,
      "addresstype": "city",
      "population": "87067"
    },
    "Meram district, Turkey": {
      "city": "Meram district",
      "lat": 37.8679527,
      "lon": 32.4946514,
      "addresstype": "town",
      "population": "346366",
      "actualCityName": "Meram"
    },
    "Meram, Turkey": {
      "city": "Meram",
      "lat": 37.8679527,
      "lon": 32.4946514,
      "addresstype": "town",
      "population": "346366"
    },
    "Mexico City, Mexico": {
      "city": "Mexico City",
      "lat": 19.4326296,
      "lon": -99.1331785,
      "addresstype": "city",
      "population": "9209944"
    },
    "Meziboří, Czech Republic": {
      "city": "Meziboří",
      "lat": 50.6203084,
      "lon": 13.6071384,
      "addresstype": "town",
      "population": "4708"
    },
    "Mie Prefecture, Japan": {
      "city": "Mie Prefecture",
      "lat": 34.7339685,
      "lon": 136.5154489,
      "addresstype": "province",
      "population": null
    },
    "Milton Keynes, England": {
      "city": "Milton Keynes",
      "lat": 52.0406502,
      "lon": -0.7594092,
      "addresstype": "city",
      "population": "229941"
    },
    "Mindelo, Cape Verde": {
      "city": "Mindelo",
      "lat": 16.8873057,
      "lon": -24.9864064,
      "addresstype": "city",
      "population": "70000"
    },
    "Minya, Egypt": {
      "city": "Minya",
      "lat": 28.0893325,
      "lon": 30.7570623,
      "addresstype": "city",
      "population": "247000"
    },
    "Mitcham, England": {
      "city": "Mitcham",
      "lat": 51.4058006,
      "lon": -0.1640787,
      "addresstype": "suburb",
      "population": null
    },
    "Mito, Japan": {
      "city": "Mito",
      "lat": 36.3659174,
      "lon": 140.4731743,
      "addresstype": "city",
      "population": "271047"
    },
    "Miyamae-ku, Japan": {
      "city": "Miyamae-ku",
      "lat": 35.5891669,
      "lon": 139.5786951,
      "addresstype": "suburb",
      "population": "225594"
    },
    "Mogadishu, Somalia": {
      "city": "Mogadishu",
      "lat": 2.0349312,
      "lon": 45.3419183,
      "addresstype": "city",
      "population": "2610000"
    },
    "Mogi das Cruzes, Brazil": {
      "city": "Mogi das Cruzes",
      "lat": -23.5234284,
      "lon": -46.1926671,
      "addresstype": "municipality",
      "population": "451505"
    },
    "Mohammedia, Morocco": {
      "city": "Mohammedia",
      "lat": 33.6958383,
      "lon": -7.3893292,
      "addresstype": "city",
      "population": "194358"
    },
    "Molde Municipality, Norway": {
      "city": "Molde Municipality",
      "lat": 62.6016257,
      "lon": 8.1386208,
      "addresstype": "municipality",
      "population": "33163",
      "actualCityName": "Molde"
    },
    "Molde, Norway": {
      "city": "Molde",
      "lat": 62.6016257,
      "lon": 8.1386208,
      "addresstype": "municipality",
      "population": "33163"
    },
    "Monterrey, Mexico": {
      "city": "Monterrey",
      "lat": 25.6802019,
      "lon": -100.315258,
      "addresstype": "city",
      "population": "1142994"
    },
    "Montevideo, Uruguay": {
      "city": "Montevideo",
      "lat": -34.9058916,
      "lon": -56.1913095,
      "addresstype": "city",
      "population": "1319108"
    },
    "Montfermeil, France": {
      "city": "Montfermeil",
      "lat": 48.8992679,
      "lon": 2.5660399,
      "addresstype": "town",
      "population": "27980"
    },
    "Montivilliers, France": {
      "city": "Montivilliers",
      "lat": 49.5457966,
      "lon": 0.1920827,
      "addresstype": "town",
      "population": "15478"
    },
    "Montpellier, France": {
      "city": "Montpellier",
      "lat": 43.6112422,
      "lon": 3.8767337,
      "addresstype": "city",
      "population": "302454"
    },
    "Montreal, Canada": {
      "city": "Montreal",
      "lat": 45.5031824,
      "lon": -73.5698065,
      "addresstype": "city",
      "population": "1762949"
    },
    "Montreuil, France": {
      "city": "Montreuil",
      "lat": 48.860278,
      "lon": 2.443056,
      "addresstype": "override",
      "population": null
    },
    "Monufia Governorate, Egypt": {
      "city": "Monufia Governorate",
      "lat": 30.4370098,
      "lon": 30.7466852,
      "addresstype": "state",
      "population": null
    },
    "Moonee Ponds, Australia": {
      "city": "Moonee Ponds",
      "lat": -37.765575,
      "lon": 144.9212864,
      "addresstype": "suburb",
      "population": "14250"
    },
    "Moordrecht, Netherlands": {
      "city": "Moordrecht",
      "lat": 51.9865065,
      "lon": 4.6698314,
      "addresstype": "village",
      "population": "8395"
    },
    "Mostar, Bosnia and Herzegovina": {
      "city": "Mostar",
      "lat": 43.3435855,
      "lon": 17.8076584,
      "addresstype": "city",
      "population": "60195"
    },
    "Motala, Sweden": {
      "city": "Motala",
      "lat": 58.5420395,
      "lon": 15.041261,
      "addresstype": "town",
      "population": "29823"
    },
    "Mozelos, Portugal": {
      "city": "Mozelos",
      "lat": 40.9995263,
      "lon": -8.5579985,
      "addresstype": "town",
      "population": "7142"
    },
    "Munich, Germany": {
      "city": "Munich",
      "lat": 48.1371079,
      "lon": 11.5753822,
      "addresstype": "city",
      "population": "1478280"
    },
    "Murphy, Argentina": {
      "city": "Murphy",
      "lat": -33.6423626,
      "lon": -61.8584359,
      "addresstype": "village",
      "population": "4039"
    },
    "Musina, South Africa": {
      "city": "Musina",
      "lat": -22.3453519,
      "lon": 30.0268526,
      "addresstype": "city",
      "population": "42678"
    },
    "Málaga, Spain": {
      "city": "Málaga",
      "lat": 36.7647913,
      "lon": -4.4422005,
      "addresstype": "municipality",
      "population": "597173"
    },
    "Mülheim an der Ruhr, Germany": {
      "city": "Mülheim an der Ruhr",
      "lat": 51.4272925,
      "lon": 6.8829192,
      "addresstype": "city",
      "population": "167108"
    },
    "Mělník, Czech Republic": {
      "city": "Mělník",
      "lat": 50.3520785,
      "lon": 14.4748281,
      "addresstype": "town",
      "population": "19650"
    },
    "Nagrig, Egypt": {
      "city": "Nagrig",
      "lat": 30.9725,
      "lon": 30.8669,
      "addresstype": "override"
    },
    "Najaf, Iraq": {
      "city": "Najaf",
      "lat": 32.0010227,
      "lon": 44.3299926,
      "addresstype": "city",
      "population": "1221248"
    },
    "Nampula, Mozambique": {
      "city": "Nampula",
      "lat": -15.1194063,
      "lon": 39.2615886,
      "addresstype": "city",
      "population": "477900"
    },
    "Namsos, Norway": {
      "city": "Namsos",
      "lat": 64.4666372,
      "lon": 11.3345047,
      "addresstype": "municipality",
      "population": "15154"
    },
    "Namyangju, South Korea": {
      "city": "Namyangju",
      "lat": 37.6359398,
      "lon": 127.2165051,
      "addresstype": "city",
      "population": "723215"
    },
    "Nancy, France": {
      "city": "Nancy",
      "lat": 48.6937223,
      "lon": 6.1834097,
      "addresstype": "city",
      "population": "104260"
    },
    "Nantes, France": {
      "city": "Nantes",
      "lat": 47.2186371,
      "lon": -1.5541362,
      "addresstype": "city",
      "population": "327734"
    },
    "Naperville, United States": {
      "city": "Naperville",
      "lat": 41.7728699,
      "lon": -88.1479278,
      "addresstype": "city",
      "population": "149540"
    },
    "Naples, Italy": {
      "city": "Naples",
      "lat": 40.8358846,
      "lon": 14.2487679,
      "addresstype": "city",
      "population": "972212"
    },
    "Navoiy, Uzbekistan": {
      "city": "Navoiy",
      "lat": 40.1034582,
      "lon": 65.3734221,
      "addresstype": "city",
      "population": "215500"
    },
    "Navojoa, Mexico": {
      "city": "Navojoa",
      "lat": 27.0721872,
      "lon": -109.4438227,
      "addresstype": "city",
      "population": "120926"
    },
    "Našice, Croatia": {
      "city": "Našice",
      "lat": 45.4907759,
      "lon": 18.0938075,
      "addresstype": "town",
      "population": "14291"
    },
    "Ndangane, Senegal": {
      "city": "Ndangane",
      "lat": 14.0763643,
      "lon": -15.9246624,
      "addresstype": "village",
      "population": null
    },
    "Neerpelt, Belgium": {
      "city": "Neerpelt",
      "lat": 51.2292367,
      "lon": 5.442759,
      "addresstype": "city",
      "population": null
    },
    "Neftenbach, Switzerland": {
      "city": "Neftenbach",
      "lat": 47.528176,
      "lon": 8.6680365,
      "addresstype": "village",
      "population": "5434"
    },
    "Nemours, France": {
      "city": "Nemours",
      "lat": 48.268026,
      "lon": 2.6953079,
      "addresstype": "town",
      "population": "13189"
    },
    "Neunkirchen, Austria": {
      "city": "Neunkirchen",
      "lat": 47.7221147,
      "lon": 16.081602,
      "addresstype": "town",
      "population": "11833"
    },
    "New Egypt, United States": {
      "city": "New Egypt",
      "lat": 40.0676135,
      "lon": -74.5307093,
      "addresstype": "village",
      "population": "2357"
    },
    "New York City, United States": {
      "city": "New York City",
      "lat": 40.7127281,
      "lon": -74.0060152,
      "addresstype": "city",
      "population": "8467513"
    },
    "Newark, United States": {
      "city": "Newark",
      "lat": 40.735657,
      "lon": -74.1723667,
      "addresstype": "city",
      "population": "311549"
    },
    "Newcastle, Australia": {
      "city": "Newcastle",
      "lat": -32.9192953,
      "lon": 151.7795348,
      "addresstype": "suburb",
      "population": null
    },
    "Nexø, Denmark": {
      "city": "Nexø",
      "lat": 55.0650145,
      "lon": 15.1307273,
      "addresstype": "village",
      "population": "3660"
    },
    "Nieuwegein, Netherlands": {
      "city": "Nieuwegein",
      "lat": 52.0367152,
      "lon": 5.0836117,
      "addresstype": "town",
      "population": "61869"
    },
    "Nijmegen, Netherlands": {
      "city": "Nijmegen",
      "lat": 51.8474946,
      "lon": 5.8637771,
      "addresstype": "city",
      "population": "182480"
    },
    "Nishapur, Iran": {
      "city": "Nishapur",
      "lat": 36.2105604,
      "lon": 58.7922291,
      "addresstype": "city",
      "population": "264375"
    },
    "Noisy-le-Grand, France": {
      "city": "Noisy-le-Grand",
      "lat": 48.8492238,
      "lon": 2.5524906,
      "addresstype": "town",
      "population": "70374"
    },
    "Norrköping Matteus church parish, Sweden": {
      "city": "Norrköping Matteus church parish",
      "lat": 58.5909124,
      "lon": 16.1903511,
      "addresstype": "override"
    },
    "Norrköping, Sweden": {
      "city": "Norrköping",
      "lat": 58.5909124,
      "lon": 16.1903511,
      "addresstype": "city",
      "population": "98088"
    },
    "Northampton, England": {
      "city": "Northampton",
      "lat": 52.2378853,
      "lon": -0.8963639,
      "addresstype": "town",
      "population": "227184"
    },
    "Norwich, England": {
      "city": "Norwich",
      "lat": 52.6285576,
      "lon": 1.2923954,
      "addresstype": "city",
      "population": "132512"
    },
    "Novi Pazar, Serbia": {
      "city": "Novi Pazar",
      "lat": 43.1406913,
      "lon": 20.518057,
      "addresstype": "city",
      "population": "71462"
    },
    "Novo Hamburgo, Brazil": {
      "city": "Novo Hamburgo",
      "lat": -29.6905705,
      "lon": -51.1429035,
      "addresstype": "municipality",
      "population": "227646"
    },
    "Nueva Palmira, Uruguay": {
      "city": "Nueva Palmira",
      "lat": -33.8710911,
      "lon": -58.4068884,
      "addresstype": "city",
      "population": "10775"
    },
    "Nuevo Berlín, Uruguay": {
      "city": "Nuevo Berlín",
      "lat": -32.9803448,
      "lon": -58.0569456,
      "addresstype": "town",
      "population": "2692"
    },
    "Nuremberg, Germany": {
      "city": "Nuremberg",
      "lat": 49.453872,
      "lon": 11.077298,
      "addresstype": "city",
      "population": "526091"
    },
    "Nyon, Switzerland": {
      "city": "Nyon",
      "lat": 46.3820585,
      "lon": 6.2402791,
      "addresstype": "town",
      "population": "19738"
    },
    "Odumase Krobo, Ghana": {
      "city": "Odumase Krobo",
      "lat": 6.1361198,
      "lon": 0.0053376,
      "addresstype": "town",
      "population": null
    },
    "Olhão, Portugal": {
      "city": "Olhão",
      "lat": 37.0270369,
      "lon": -7.8411287,
      "addresstype": "city",
      "population": "44643"
    },
    "Olmaliq, Uzbekistan": {
      "city": "Olmaliq",
      "lat": 40.845729,
      "lon": 69.6071609,
      "addresstype": "town",
      "population": "138000"
    },
    "Olomouc, Czech Republic": {
      "city": "Olomouc",
      "lat": 49.5940567,
      "lon": 17.251143,
      "addresstype": "city",
      "population": "99604"
    },
    "Oost-Souburg, Netherlands": {
      "city": "Oost-Souburg",
      "lat": 51.4645556,
      "lon": 3.6042063,
      "addresstype": "village",
      "population": "10240"
    },
    "Osaka, Japan": {
      "city": "Osaka",
      "lat": 34.6937569,
      "lon": 135.5014539,
      "addresstype": "city",
      "population": "2691185"
    },
    "Osasco, Brazil": {
      "city": "Osasco",
      "lat": -23.5324859,
      "lon": -46.7916801,
      "addresstype": "municipality",
      "population": "728615"
    },
    "Oslo, Norway": {
      "city": "Oslo",
      "lat": 59.9723975,
      "lon": 10.7757292,
      "addresstype": "municipality",
      "population": "724290"
    },
    "Osmangazi, Turkey": {
      "city": "Osmangazi",
      "lat": 40.1982203,
      "lon": 29.0612098,
      "addresstype": "town",
      "population": "885441"
    },
    "Ostend, Belgium": {
      "city": "Ostend",
      "lat": 51.2258565,
      "lon": 2.919496,
      "addresstype": "city",
      "population": "70600"
    },
    "Ouagadougou, Burkina Faso": {
      "city": "Ouagadougou",
      "lat": 12.3681873,
      "lon": -1.5270944,
      "addresstype": "city",
      "population": "1915102"
    },
    "Ouragahio, Ivory Coast": {
      "city": "Ouragahio",
      "lat": 6.3083585,
      "lon": -5.9312428,
      "addresstype": "town",
      "population": null
    },
    "Overland Park, United States": {
      "city": "Overland Park",
      "lat": 38.9742502,
      "lon": -94.6851702,
      "addresstype": "city",
      "population": "188966"
    },
    "Oviedo, Spain": {
      "city": "Oviedo",
      "lat": 43.3533452,
      "lon": -5.8795096,
      "addresstype": "city",
      "population": "223576"
    },
    "Paderborn, Germany": {
      "city": "Paderborn",
      "lat": 51.7177044,
      "lon": 8.752653,
      "addresstype": "city",
      "population": "151633"
    },
    "Palma, Spain": {
      "city": "Palma",
      "lat": 39.5695818,
      "lon": 2.6500745,
      "addresstype": "city",
      "population": "443196"
    },
    "Palmerston North, New Zealand": {
      "city": "Palmerston North",
      "lat": -40.356317,
      "lon": 175.6112388,
      "addresstype": "city",
      "population": "81800"
    },
    "Pamplona, Spain": {
      "city": "Pamplona",
      "lat": 42.815686,
      "lon": -1.6522353,
      "addresstype": "city",
      "population": "209676"
    },
    "Panama City, Panama": {
      "city": "Panama City",
      "lat": 8.9714493,
      "lon": -79.5341802,
      "addresstype": "city",
      "population": "1086990"
    },
    "Pap, Uzbekistan": {
      "city": "Pap",
      "lat": 40.8743693,
      "lon": 71.0970171,
      "addresstype": "town",
      "population": null
    },
    "Paris, France": {
      "city": "Paris",
      "lat": 48.8534951,
      "lon": 2.3483915,
      "addresstype": "city",
      "population": "2165423"
    },
    "Park Ridge, United States": {
      "city": "Park Ridge",
      "lat": 42.0112329,
      "lon": -87.8406031,
      "addresstype": "town",
      "population": "39656"
    },
    "Parma, Italy": {
      "city": "Parma",
      "lat": 44.80153,
      "lon": 10.3279843,
      "addresstype": "city",
      "population": "202111"
    },
    "Pereira, Colombia": {
      "city": "Pereira",
      "lat": 4.7854606,
      "lon": -75.788322,
      "addresstype": "municipality",
      "population": null
    },
    "Perth, Australia": {
      "city": "Perth",
      "lat": -31.9558967,
      "lon": 115.8605784,
      "addresstype": "city",
      "population": "2043762"
    },
    "Petit-Goâve, Haiti": {
      "city": "Petit-Goâve",
      "lat": 18.4326935,
      "lon": -72.865384,
      "addresstype": "town",
      "population": "25367"
    },
    "Petite-Rivière-de-l'Artibonite, Haiti": {
      "city": "Petite-Rivière-de-l'Artibonite",
      "lat": 19.1228446,
      "lon": -72.4798459,
      "addresstype": "town",
      "population": "35000"
    },
    "Petrópolis, Brazil": {
      "city": "Petrópolis",
      "lat": -22.5075743,
      "lon": -43.1785356,
      "addresstype": "municipality",
      "population": "278881"
    },
    "Philadelphia, United States": {
      "city": "Philadelphia",
      "lat": 39.9527237,
      "lon": -75.1635262,
      "addresstype": "city",
      "population": "1603797"
    },
    "Pickering, Canada": {
      "city": "Pickering",
      "lat": 43.835765,
      "lon": -79.090576,
      "addresstype": "city",
      "population": "91771"
    },
    "Pico Rivera, United States": {
      "city": "Pico Rivera",
      "lat": 33.9830688,
      "lon": -118.096735,
      "addresstype": "town",
      "population": "64336"
    },
    "Pikine, Senegal": {
      "city": "Pikine",
      "lat": 14.751544,
      "lon": -17.396413,
      "addresstype": "city",
      "population": null
    },
    "Plumpton, Australia": {
      "city": "Plumpton",
      "lat": -33.7566667,
      "lon": 150.8427778,
      "addresstype": "suburb",
      "population": null
    },
    "Plzeň, Czech Republic": {
      "city": "Plzeň",
      "lat": 49.7477415,
      "lon": 13.3775249,
      "addresstype": "city",
      "population": "168951"
    },